,address,category,id,lat,lng,location,name,originalId,subCategory,details,reviews,checkinsCount,usersCount,likes,checkins,talking_about_count,fan_count,Solo,Famille,Couple,Entre amis,Entre collègues
0,10 rue des Immeubles Industriels,attraction,87572,48.849531144829996,2.3928544226342003,Paris,Arcade Street,4d2898c677a2a1cd44da63b7,Arcade,http://tour-pedia.org/api/getPlaceDetails?id=87572,http://tour-pedia.org/api/getReviewsByPlaceId?placeId=87572,3704,1811,55,,,,5.0,5.0,5.0,5.0,5.0
1,Cour Bérard,attraction,91835,48.854308646340996,2.3662394285202004,Paris,#Appartement4,5257cb7b11d2de8c3a3433ee,Arcade,http://tour-pedia.org/api/getPlaceDetails?id=91835,http://tour-pedia.org/api/getReviewsByPlaceId?placeId=91835,878,679,6,,,,5.0,5.0,5.0,5.0,5.0
2,Parc de la Villette,attraction,83573,48.890631905558,2.3900761307412997,Paris,Pavillon Paul Delouvrier,4adcda0cf964a520ff3421e3,Art Gallery,http://tour-pedia.org/api/getPlaceDetails?id=83573,http://tour-pedia.org/api/getReviewsByPlaceId?placeId=83573,850,517,26,,,,5.0,4.0,4.0,4.0,4.0
3,7 rond-point des Champs-Élysées,attraction,83609,48.868614071405,2.3088401556015,Paris,Artcurial,4adcda10f964a520873521e3,Art Gallery,http://tour-pedia.org/api/getPlaceDetails?id=83609,http://tour-pedia.org/api/getReviewsByPlaceId?placeId=83609,1951,968,32,,,,5.0,4.0,4.0,4.0,4.0
4,60 Rue de Bassano,attraction,84235,48.871659203246004,2.3003911972046,Paris,Espace Culturel Louis Vuitton,4b4cd5eef964a520eac026e3,Art Gallery,http://tour-pedia.org/api/getPlaceDetails?id=84235,http://tour-pedia.org/api/getReviewsByPlaceId?placeId=84235,1799,1225,9,,,,5.0,4.0,4.0,4.0,4.0
5,2 Rue Charles Nodier,attraction,84982,48.884372979613,2.3449059296629,Paris,Marché Saint-Pierre,4b89596ef964a520dd2d32e3,Art Gallery,http://tour-pedia.org/api/getPlaceDetails?id=84982,http://tour-pedia.org/api/getReviewsByPlaceId?placeId=84982,3490,2420,89,,,,5.0,4.0,4.0,4.0,4.0
6,48 Rue Vieille du Temple,attraction,85938,48.858238266037,2.358552493322,Paris,L'Espace des Blancs-Manteaux,4bd4763f29eb9c74529a91e1,Art Gallery,http://tour-pedia.org/api/getPlaceDetails?id=85938,http://tour-pedia.org/api/getReviewsByPlaceId?placeId=85938,2574,1673,50,,,,5.0,4.0,4.0,4.0,4.0
7,7bis rue René Goscinny,attraction,87863,48.830801685139,2.3801647866044,Paris,Galerie Itinerrance,4d810541551ea1cd5d8025c5,Art Gallery,http://tour-pedia.org/api/getPlaceDetails?id=87863,http://tour-pedia.org/api/getReviewsByPlaceId?placeId=87863,2531,1394,34,,,,5.0,4.0,4.0,4.0,4.0
8,12 rue Cantagrel,attraction,88238,48.823472446056,2.3764735307265,Paris,Cité-Refuge De L'Armée Du Salut Le Corbusier,4dd3dc9cd1643acaa1ea41ba,Art Gallery,http://tour-pedia.org/api/getPlaceDetails?id=88238,http://tour-pedia.org/api/getReviewsByPlaceId?placeId=88238,1581,891,13,,,,5.0,4.0,4.0,4.0,4.0
9,Berges de Seine,attraction,88861,48.862290116177995,2.2987466597392,Paris,Photoquai,4e70ab15b99302402c5c8413,Art Gallery,http://tour-pedia.org/api/getPlaceDetails?id=88861,http://tour-pedia.org/api/getReviewsByPlaceId?placeId=88861,881,407,8,,,,5.0,4.0,4.0,4.0,4.0
10,91 Rue De l'assomption,attraction,91773,48.855155944824,2.2669901847838996,Paris,fondation hippocrene,524bd6a311d27f3b6b1712ac,Art Gallery,http://tour-pedia.org/api/getPlaceDetails?id=91773,http://tour-pedia.org/api/getReviewsByPlaceId?placeId=91773,2190,1181,20,,,,5.0,4.0,4.0,4.0,4.0
11,17 avenue d'Iéna,attraction,83758,48.866173067807,2.2944579342768,Paris,Goethe Institut,4adcda22f964a520163a21e3,Arts & Entertainment,http://tour-pedia.org/api/getPlaceDetails?id=83758,http://tour-pedia.org/api/getReviewsByPlaceId?placeId=83758,877,484,2,,,,4.0,4.0,4.0,4.0,4.0
12,43 rue du Borrégo,attraction,88466,48.873452199176995,2.4017656752526,Paris,MJC Les Hauts de Belleville,4e11fae9e4cdef074b783072,Arts & Entertainment,http://tour-pedia.org/api/getPlaceDetails?id=88466,http://tour-pedia.org/api/getReviewsByPlaceId?placeId=88466,3851,2602,40,,,,4.0,4.0,4.0,4.0,4.0
13,Route de la muette,attraction,88978,48.878239745943006,2.2609210481552,Paris,Club Hippique Jardin D'acclimatation,4e882dc561af78e56049cb1a,Arts & Entertainment,http://tour-pedia.org/api/getPlaceDetails?id=88978,http://tour-pedia.org/api/getReviewsByPlaceId?placeId=88978,365,204,7,,,,4.0,4.0,4.0,4.0,4.0
14,88 Rue de Ménilmontant,attraction,84119,48.86876308,2.391759,Paris,La Miroiterie,4b3d05b8f964a5201e8c25e3,Arts & Entertainment,http://tour-pedia.org/api/getPlaceDetails?id=84119,http://tour-pedia.org/api/getReviewsByPlaceId?placeId=84119,1003,714,14,,,,4.0,4.0,4.0,4.0,4.0
15,19 rue des Frigos,attraction,85391,48.83133672092,2.3793693618117997,Paris,Les Frigos,4baca14ff964a52073ff3ae3,Arts & Entertainment,http://tour-pedia.org/api/getPlaceDetails?id=85391,http://tour-pedia.org/api/getReviewsByPlaceId?placeId=85391,110,40,0,,,,4.0,4.0,4.0,4.0,4.0
16,87 Quai De La Gare,attraction,90862,48.837053999999995,2.374154,Paris,Back To The Lab...,5130789ce4b01507dc614173,Arts & Entertainment,http://tour-pedia.org/api/getPlaceDetails?id=90862,http://tour-pedia.org/api/getReviewsByPlaceId?placeId=90862,3940,1817,38,,,,4.0,4.0,4.0,4.0,4.0
17,29 avenue Théophile Gautier,attraction,91565,48.849952378035,2.2727438460181,Paris,Studio 29 TG,521f0b6b498ec4571974124d,Arts & Entertainment,http://tour-pedia.org/api/getPlaceDetails?id=91565,http://tour-pedia.org/api/getReviewsByPlaceId?placeId=91565,830,414,6,,,,4.0,4.0,4.0,4.0,4.0
18,220 Rue De Courcelles,attraction,91753,48.889650215416005,2.3004277818895,Paris,Conservatoire Municipal Musique Et Danse Claude Debussy,5246dcb311d2e9c1a29ab4d3,Arts & Entertainment,http://tour-pedia.org/api/getPlaceDetails?id=91753,http://tour-pedia.org/api/getReviewsByPlaceId?placeId=91753,628,489,9,,,,4.0,4.0,4.0,4.0,4.0
19,Rue Dénoyez,attraction,84197,48.87207822115,2.3783903594526,Paris,Street Art - Rue Dénoyez,4b49c699f964a520777326e3,Arts & Entertainment,http://tour-pedia.org/api/getPlaceDetails?id=84197,http://tour-pedia.org/api/getReviewsByPlaceId?placeId=84197,4901,2560,116,,,,4.0,4.0,4.0,4.0,4.0
20,Place des Abbesses,attraction,88051,48.884762,2.338579,Paris,"""Le Mur des """"Je t'aime""""""",4da5d99e93a01f42facf4bf5,Arts & Entertainment,http://tour-pedia.org/api/getPlaceDetails?id=88051,http://tour-pedia.org/api/getReviewsByPlaceId?placeId=88051,184,149,3,,,,4.0,4.0,4.0,4.0,4.0
21,Rue Saint-Fargeau,attraction,90323,48.871382407709,2.4032997094807,Paris,Space Invader,50603157e4b0a47ead63b42f,Arts & Entertainment,http://tour-pedia.org/api/getPlaceDetails?id=90323,http://tour-pedia.org/api/getReviewsByPlaceId?placeId=90323,463,278,3,,,,4.0,4.0,4.0,4.0,4.0
22,58-62 Rue de Mouzaía,attraction,90816,48.880151571906005,2.397476881319,Paris,B.L.O.C,511f6154e4b02b37a1d3fd62,Arts & Entertainment,http://tour-pedia.org/api/getPlaceDetails?id=90816,http://tour-pedia.org/api/getReviewsByPlaceId?placeId=90816,1569,664,17,,,,4.0,4.0,4.0,4.0,4.0
23,Les Jardins de Bagatelle,attraction,90823,48.871750939874,2.2474551774479,Paris,"Circulation(s), Festival de la Jeune Photographie Européenne",511ffe7fe4b02c9c5f7cec4f,Arts & Entertainment,http://tour-pedia.org/api/getPlaceDetails?id=90823,http://tour-pedia.org/api/getReviewsByPlaceId?placeId=90823,3638,1816,41,,,,4.0,4.0,4.0,4.0,4.0
24,Metro Père Lachaise,attraction,90872,48.863311994672,2.3875656723976,Paris,Pauline's sofa,51334a8fd86c20fcb5b75a4d,Arts & Entertainment,http://tour-pedia.org/api/getPlaceDetails?id=90872,http://tour-pedia.org/api/getReviewsByPlaceId?placeId=90872,2228,1122,46,,,,4.0,4.0,4.0,4.0,4.0
25,4 Rue De L'Ourcq,attraction,91038,48.887953359664,2.3843865775559,Paris,Point G,516848c9e4b0cb9358e819db,Arts & Entertainment,http://tour-pedia.org/api/getPlaceDetails?id=91038,http://tour-pedia.org/api/getReviewsByPlaceId?placeId=91038,1290,831,18,,,,4.0,4.0,4.0,4.0,4.0
26,23 Rue Jean Maridor,attraction,91692,48.838710738155,2.2867155971236004,Paris,L'Atelier De La Charpenterie,523da304498edcd753f2f00c,Arts & Entertainment,http://tour-pedia.org/api/getPlaceDetails?id=91692,http://tour-pedia.org/api/getReviewsByPlaceId?placeId=91692,3331,1784,50,,,,4.0,4.0,4.0,4.0,4.0
27,2-16 rue des Cévennes,attraction,84317,48.84416670305,2.2764113365477003,Paris,Studios Rive Gauche,4b547d43f964a5202cbd27e3,Auditorium,http://tour-pedia.org/api/getPlaceDetails?id=84317,http://tour-pedia.org/api/getReviewsByPlaceId?placeId=84317,1785,1095,30,,,,4.0,3.0,4.0,3.0,4.0
28,48 rue la Boétie,attraction,84942,48.873956231886,2.3131628217196,Paris,Fédération Nationale du Crédit Agricole,4b855fa0f964a520c25931e3,Auditorium,http://tour-pedia.org/api/getPlaceDetails?id=84942,http://tour-pedia.org/api/getReviewsByPlaceId?placeId=84942,2345,1579,43,,,,4.0,3.0,4.0,3.0,4.0
29,Journal le Monde,attraction,85581,48.829451275481006,2.3481292378003,Paris,Auditorium du Monde,4bbd87158ec3d13a13341c28,Auditorium,http://tour-pedia.org/api/getPlaceDetails?id=85581,http://tour-pedia.org/api/getReviewsByPlaceId?placeId=85581,3053,1863,47,,,,4.0,3.0,4.0,3.0,4.0
30,9 avenue Gabriel,attraction,86366,48.867311982804004,2.3178148269653,Paris,Studio Gabriel,4c01205b9a950f47619008c6,Auditorium,http://tour-pedia.org/api/getPlaceDetails?id=86366,http://tour-pedia.org/api/getReviewsByPlaceId?placeId=86366,697,400,8,,,,4.0,3.0,4.0,3.0,4.0
31,7 rue Scribe,attraction,87752,48.871111070135,2.3300971342626005,Paris,Bloomberg,4d64d994823ca35dd055f888,Auditorium,http://tour-pedia.org/api/getPlaceDetails?id=87752,http://tour-pedia.org/api/getReviewsByPlaceId?placeId=87752,2839,1956,28,,,,4.0,3.0,4.0,3.0,4.0
32,32 rue fontaine,attraction,88718,48.881560775378,2.3341736197472005,Paris,Sam and Don Agency,4e53dcd63151427f74319709,Auditorium,http://tour-pedia.org/api/getPlaceDetails?id=88718,http://tour-pedia.org/api/getReviewsByPlaceId?placeId=88718,1966,865,11,,,,4.0,3.0,4.0,3.0,4.0
33,"37, Rue Saint-Maur",attraction,89248,48.861403179554,2.3808142963917,Paris,21-juin,4ede56369adfe5cbe3c8d03d,Auditorium,http://tour-pedia.org/api/getPlaceDetails?id=89248,http://tour-pedia.org/api/getReviewsByPlaceId?placeId=89248,1164,636,8,,,,4.0,3.0,4.0,3.0,4.0
34,"5 Rue de Lobau, 75004 Paris",attraction,89712,48.856015967161,2.352973875279,Paris,Mairie de Paris - Auditorium,4f871872e4b057e27e648705,Auditorium,http://tour-pedia.org/api/getPlaceDetails?id=89712,http://tour-pedia.org/api/getReviewsByPlaceId?placeId=89712,8524,5121,101,,,,4.0,3.0,4.0,3.0,4.0
35,42 Rue Du Borrego,attraction,90100,48.873625404649,2.4019507922519,Paris,AFCI (OFII),500e5695e4b01248665dea83,Auditorium,http://tour-pedia.org/api/getPlaceDetails?id=90100,http://tour-pedia.org/api/getReviewsByPlaceId?placeId=90100,3889,1516,38,,,,4.0,3.0,4.0,3.0,4.0
36,2ème Étage,attraction,90413,48.830364,2.376773,Paris,Salle Grand Place,506d9ed4e4b08b87bb23a8f5,Auditorium,http://tour-pedia.org/api/getPlaceDetails?id=90413,http://tour-pedia.org/api/getReviewsByPlaceId?placeId=90413,372,284,8,,,,4.0,3.0,4.0,3.0,4.0
37,8 Rue Rasselins,attraction,90476,48.853462196533,2.4104194949188997,Paris,Liberty Rock Studio,5083b83de4b0d5064baf40f4,Auditorium,http://tour-pedia.org/api/getPlaceDetails?id=90476,http://tour-pedia.org/api/getReviewsByPlaceId?placeId=90476,503,251,4,,,,4.0,3.0,4.0,3.0,4.0
38,32 Rue Guersant,attraction,90493,48.881732363118,2.289175953398,Paris,Black Room,508a6fdae4b0499bc5cfde7c,Auditorium,http://tour-pedia.org/api/getPlaceDetails?id=90493,http://tour-pedia.org/api/getReviewsByPlaceId?placeId=90493,147,88,2,,,,4.0,3.0,4.0,3.0,4.0
39,14 Rue Saint-Fiacre,attraction,90614,48.870480692164,2.345860004425,Paris,Le Saint-Fiacre,50bf311ae4b0baad5555aa9a,Auditorium,http://tour-pedia.org/api/getPlaceDetails?id=90614,http://tour-pedia.org/api/getReviewsByPlaceId?placeId=90614,179,139,3,,,,4.0,3.0,4.0,3.0,4.0
40,196 rue saint martin,attraction,90726,48.863349181451,2.3523922008743,Paris,espace saint martin,50f55337e4b0e684b982011f,Auditorium,http://tour-pedia.org/api/getPlaceDetails?id=90726,http://tour-pedia.org/api/getReviewsByPlaceId?placeId=90726,3,3,0,,,,4.0,3.0,4.0,3.0,4.0
41,73 Rue De Grenelle,attraction,91138,48.855064512751,2.3238748617791,Paris,Istituto Italiano Di Cultura,5187b91d498e17ced4b4531c,Auditorium,http://tour-pedia.org/api/getPlaceDetails?id=91138,http://tour-pedia.org/api/getReviewsByPlaceId?placeId=91138,2777,1852,42,,,,4.0,3.0,4.0,3.0,4.0
42,54 rue de Seine,attraction,91155,48.85291139338899,2.3368561118908997,Paris,Studio Acousti,5191fc60498eebef6ba935b1,Auditorium,http://tour-pedia.org/api/getPlaceDetails?id=91155,http://tour-pedia.org/api/getReviewsByPlaceId?placeId=91155,28290,11211,188,,,,4.0,3.0,4.0,3.0,4.0
43,17 Rue Gazan,attraction,91172,48.823392,2.34079,Paris,Centre Cournot,51950672498e3ab153fffa33,Auditorium,http://tour-pedia.org/api/getPlaceDetails?id=91172,http://tour-pedia.org/api/getReviewsByPlaceId?placeId=91172,6658,4435,71,,,,4.0,3.0,4.0,3.0,4.0
44,120 rue La Fayette,attraction,91309,48.877990352504995,2.3522136060235,Paris,Espace La Fayette,51b814e1498ef5a0a0a0601a,Auditorium,http://tour-pedia.org/api/getPlaceDetails?id=91309,http://tour-pedia.org/api/getReviewsByPlaceId?placeId=91309,1248,742,16,,,,4.0,3.0,4.0,3.0,4.0
45,7 PLACE DE FONTENOY,attraction,91312,48.849072793413,2.305980160371,Paris,Hall Miro III,51b9e29b498ece336393d22e,Auditorium,http://tour-pedia.org/api/getPlaceDetails?id=91312,http://tour-pedia.org/api/getReviewsByPlaceId?placeId=91312,2918,1846,24,,,,4.0,3.0,4.0,3.0,4.0
46,98 Ter Rue Des Haies,attraction,91420,48.855554999999995,2.40415,Paris,Alphasound,51da669c498eeedbcdbd0a94,Auditorium,http://tour-pedia.org/api/getPlaceDetails?id=91420,http://tour-pedia.org/api/getReviewsByPlaceId?placeId=91420,419,307,1,,,,4.0,3.0,4.0,3.0,4.0
47,3 rue Mazagran,attraction,91740,48.870587,2.351138,Paris,orange partner,5245521c498e8d164a23f68e,Auditorium,http://tour-pedia.org/api/getPlaceDetails?id=91740,http://tour-pedia.org/api/getReviewsByPlaceId?placeId=91740,2323,1655,25,,,,4.0,3.0,4.0,3.0,4.0
48,"12, rue Marceau",attraction,91771,48.866114,2.300008,Paris,Adobe Digital Summit,524bcc76498ec70eb0607d42,Auditorium,http://tour-pedia.org/api/getPlaceDetails?id=91771,http://tour-pedia.org/api/getReviewsByPlaceId?placeId=91771,4403,3639,81,,,,4.0,3.0,4.0,3.0,4.0
49,99 rue Oberkampf,attraction,83355,48.8654975,2.3766887000000003,Paris,Mécano-Bar,4adcda04f964a520333221e3,Bar,http://tour-pedia.org/api/getPlaceDetails?id=83355,http://tour-pedia.org/api/getReviewsByPlaceId?placeId=83355,10628,7627,184,,,,4.0,1.0,3.0,5.0,5.0
50,11 Quai François Mauriac,attraction,83383,48.833382225428,2.3792588710784996,Paris,Le Batofar,4adcda05f964a520743221e3,Bar,http://tour-pedia.org/api/getPlaceDetails?id=83383,http://tour-pedia.org/api/getReviewsByPlaceId?placeId=83383,1916,1110,19,,,,4.0,1.0,3.0,5.0,5.0
51,5 Rue Daunou,attraction,83384,48.869245695676,2.332170009613,Paris,Harry's New York Bar,4adcda05f964a5207b3221e3,Bar,http://tour-pedia.org/api/getPlaceDetails?id=83384,http://tour-pedia.org/api/getReviewsByPlaceId?placeId=83384,1403,428,1,,,,4.0,1.0,3.0,5.0,5.0
52,16 rue des Quatre Vents,attraction,83388,48.851820299809,2.3377395841813,Paris,The Moose,4adcda05f964a520963221e3,Bar,http://tour-pedia.org/api/getPlaceDetails?id=83388,http://tour-pedia.org/api/getReviewsByPlaceId?placeId=83388,2481,2303,34,,,,4.0,1.0,3.0,5.0,5.0
53,23 rue Gabrielle,attraction,83409,48.885773,2.34061,Paris,Le Rendez-Vous des Amis,4adcda06f964a520e43221e3,Bar,http://tour-pedia.org/api/getPlaceDetails?id=83409,http://tour-pedia.org/api/getReviewsByPlaceId?placeId=83409,2422,1561,30,,,,4.0,1.0,3.0,5.0,5.0
54,16 rue Dufrénoy,attraction,83416,48.865932121219,2.2721822450395,Paris,Oum El Banine,4adcda06f964a520f53221e3,Bar,http://tour-pedia.org/api/getPlaceDetails?id=83416,http://tour-pedia.org/api/getReviewsByPlaceId?placeId=83416,475,112,1,,,,4.0,1.0,3.0,5.0,5.0
55,10 Rue Mouffetard,attraction,83421,48.844553999999995,2.349542,Paris,Le Requin Chagrin,4adcda07f964a5200d3321e3,Bar,http://tour-pedia.org/api/getPlaceDetails?id=83421,http://tour-pedia.org/api/getReviewsByPlaceId?placeId=83421,3,3,0,,,,4.0,1.0,3.0,5.0,5.0
56,5 rue Trousseau,attraction,83439,48.8511579,2.3786311,Paris,The Bottle Shop,4adcda08f964a520903321e3,Bar,http://tour-pedia.org/api/getPlaceDetails?id=83439,http://tour-pedia.org/api/getReviewsByPlaceId?placeId=83439,121,26,2,,,,4.0,1.0,3.0,5.0,5.0
57,8 rue de Belleville,attraction,83446,48.872475101027,2.3780466634939,Paris,Aux Folies,4adcda08f964a520a03321e3,Bar,http://tour-pedia.org/api/getPlaceDetails?id=83446,http://tour-pedia.org/api/getReviewsByPlaceId?placeId=83446,1126,629,13,,,,4.0,1.0,3.0,5.0,5.0
58,98 Quai de la Rapée,attraction,83761,48.846064450919,2.3675107955933,Paris,Salons Vianey,4adcda22f964a520293a21e3,Bar,http://tour-pedia.org/api/getPlaceDetails?id=83761,http://tour-pedia.org/api/getReviewsByPlaceId?placeId=83761,32289,22414,608,,,,4.0,1.0,3.0,5.0,5.0
59,"16, rue des Dames",attraction,83780,48.885085,2.325222,Paris,Lush Bar,4af1a870f964a520e9e121e3,Bar,http://tour-pedia.org/api/getPlaceDetails?id=83780,http://tour-pedia.org/api/getReviewsByPlaceId?placeId=83780,22,18,0,,,,4.0,1.0,3.0,5.0,5.0
60,163 avenue de Suffren,attraction,83784,48.845764962508,2.3098094894535,Paris,Le Cristal,4af1c0c3f964a520d2e221e3,Bar,http://tour-pedia.org/api/getPlaceDetails?id=83784,http://tour-pedia.org/api/getReviewsByPlaceId?placeId=83784,466,119,1,,,,4.0,1.0,3.0,5.0,5.0
61,80 Quai de Jemmapes,attraction,83793,48.872576587867,2.365665435791,Paris,Le Comptoir Général,4af31753f964a52092ea21e3,Bar,http://tour-pedia.org/api/getPlaceDetails?id=83793,http://tour-pedia.org/api/getReviewsByPlaceId?placeId=83793,166,45,0,,,,4.0,1.0,3.0,5.0,5.0
62,74 rue de la Roquette,attraction,83794,48.855902944204,2.3752862345612997,Paris,Les Furieux,4af327b6f964a5203feb21e3,Bar,http://tour-pedia.org/api/getPlaceDetails?id=83794,http://tour-pedia.org/api/getReviewsByPlaceId?placeId=83794,33,25,0,,,,4.0,1.0,3.0,5.0,5.0
63,8 Boulevard Montmartre,attraction,83796,48.871615786505004,2.3423790813692,Paris,Café Oz,4af35879f964a520c7ec21e3,Bar,http://tour-pedia.org/api/getPlaceDetails?id=83796,http://tour-pedia.org/api/getReviewsByPlaceId?placeId=83796,7,6,0,,,,4.0,1.0,3.0,5.0,5.0
64,"40, Rue de Clignancourt",attraction,83800,48.887048,2.3475959308034,Paris,La Chope du Château Rouge,4af45da8f964a520bcf121e3,Bar,http://tour-pedia.org/api/getPlaceDetails?id=83800,http://tour-pedia.org/api/getReviewsByPlaceId?placeId=83800,75,29,0,,,,4.0,1.0,3.0,5.0,5.0
65,18 rue Alibert,attraction,83805,48.871718024516,2.36778651759,Paris,Le Carillon,4af58444f964a52088f921e3,Bar,http://tour-pedia.org/api/getPlaceDetails?id=83805,http://tour-pedia.org/api/getReviewsByPlaceId?placeId=83805,2077,1103,6,,,,4.0,1.0,3.0,5.0,5.0
66,2 rue de Passy,attraction,83808,48.858557,2.284398,Paris,Le Passy,4af5fdcdf964a520e3ff21e3,Bar,http://tour-pedia.org/api/getPlaceDetails?id=83808,http://tour-pedia.org/api/getReviewsByPlaceId?placeId=83808,34,25,0,,,,4.0,1.0,3.0,5.0,5.0
67,15 rue de Sévigné,attraction,83828,48.856357570993005,2.3625755310059,Paris,Le Piment,4afdaebff964a520ca2922e3,Bar,http://tour-pedia.org/api/getPlaceDetails?id=83828,http://tour-pedia.org/api/getReviewsByPlaceId?placeId=83828,168,58,2,,,,4.0,1.0,3.0,5.0,5.0
68,49 rue Jean-Pierre Timbaud,attraction,83857,48.866874416968,2.3738837242126,Paris,UFO Bar,4b06f4c6f964a5202bf422e3,Bar,http://tour-pedia.org/api/getPlaceDetails?id=83857,http://tour-pedia.org/api/getReviewsByPlaceId?placeId=83857,39,16,0,,,,4.0,1.0,3.0,5.0,5.0
69,26 Pl. de la Nation,attraction,83889,48.847389044856996,2.3967680098835,Paris,The Irish Corner,4b0f01d2f964a5200e5e23e3,Bar,http://tour-pedia.org/api/getPlaceDetails?id=83889,http://tour-pedia.org/api/getReviewsByPlaceId?placeId=83889,28,17,0,,,,4.0,1.0,3.0,5.0,5.0
70,2 rue Valette,attraction,83892,48.848121658557,2.3471311769132996,Paris,Le Saint Hilaire,4b0fc878f964a520dd6423e3,Bar,http://tour-pedia.org/api/getPlaceDetails?id=83892,http://tour-pedia.org/api/getReviewsByPlaceId?placeId=83892,1856,1024,5,,,,4.0,1.0,3.0,5.0,5.0
71,32 rue des Moines,attraction,83900,48.889029,2.319552,Paris,Le Zinc Café,4b11854cf964a520637e23e3,Bar,http://tour-pedia.org/api/getPlaceDetails?id=83900,http://tour-pedia.org/api/getReviewsByPlaceId?placeId=83900,104,34,0,,,,4.0,1.0,3.0,5.0,5.0
72,37 Rue des Abbesses,attraction,83908,48.885113,2.337205,Paris,Le Vrai Paris,4b14da8df964a52009a723e3,Bar,http://tour-pedia.org/api/getPlaceDetails?id=83908,http://tour-pedia.org/api/getReviewsByPlaceId?placeId=83908,100,66,0,,,,4.0,1.0,3.0,5.0,5.0
73,34 Rue Titon,attraction,83911,48.852908,2.386238,Paris,Café Titon,4b157c60f964a52090ad23e3,Bar,http://tour-pedia.org/api/getPlaceDetails?id=83911,http://tour-pedia.org/api/getReviewsByPlaceId?placeId=83911,195,97,0,,,,4.0,1.0,3.0,5.0,5.0
74,37 Rue Saint-Sauveur,attraction,83926,48.866100584708,2.3483388038034,Paris,Experimental Cocktail Club,4b181e1cf964a5203acd23e3,Bar,http://tour-pedia.org/api/getPlaceDetails?id=83926,http://tour-pedia.org/api/getReviewsByPlaceId?placeId=83926,657,189,0,,,,4.0,1.0,3.0,5.0,5.0
75,10 Rue Oberkampf,attraction,83958,48.863131208948005,2.3684896342768,Paris,Le Kitch,4b1d8891f964a520d51124e3,Bar,http://tour-pedia.org/api/getPlaceDetails?id=83958,http://tour-pedia.org/api/getReviewsByPlaceId?placeId=83958,194,77,1,,,,4.0,1.0,3.0,5.0,5.0
76,16 rue des Bernardins,attraction,83973,48.850394342182,2.3507435796721,Paris,Curio Parlor,4b1eed41f964a520a42124e3,Bar,http://tour-pedia.org/api/getPlaceDetails?id=83973,http://tour-pedia.org/api/getReviewsByPlaceId?placeId=83973,121,39,0,,,,4.0,1.0,3.0,5.0,5.0
77,23 rue Mazarine,attraction,83997,48.854805823576,2.3379042779918997,Paris,Prescription Cocktail Club,4b22eca6f964a5206c5024e3,Bar,http://tour-pedia.org/api/getPlaceDetails?id=83997,http://tour-pedia.org/api/getReviewsByPlaceId?placeId=83997,730,468,2,,,,4.0,1.0,3.0,5.0,5.0
78,23 Avenue Simín Bolívar,attraction,84011,48.874881200000004,2.382555,Paris,Le Faitout,4b252c15f964a5205b6d24e3,Bar,http://tour-pedia.org/api/getPlaceDetails?id=84011,http://tour-pedia.org/api/getReviewsByPlaceId?placeId=84011,83,41,1,,,,4.0,1.0,3.0,5.0,5.0
79,Place des Abbesses,attraction,84024,48.884767953576,2.3379048059763,Paris,Le Saint Jean,4b27ba0ef964a520028924e3,Bar,http://tour-pedia.org/api/getPlaceDetails?id=84024,http://tour-pedia.org/api/getReviewsByPlaceId?placeId=84024,386,235,2,,,,4.0,1.0,3.0,5.0,5.0
80,8 Passage Josset,attraction,84042,48.852729230887,2.3765012839984,Paris,Le Motel,4b2aba3df964a5206eae24e3,Bar,http://tour-pedia.org/api/getPlaceDetails?id=84042,http://tour-pedia.org/api/getReviewsByPlaceId?placeId=84042,130,75,0,,,,4.0,1.0,3.0,5.0,5.0
81,8 Quai Saint-Exupery,attraction,84049,48.837393432343,2.2642135620117,Paris,Au Trinquet,4b2c145af964a52020c124e3,Bar,http://tour-pedia.org/api/getPlaceDetails?id=84049,http://tour-pedia.org/api/getReviewsByPlaceId?placeId=84049,474,422,9,,,,4.0,1.0,3.0,5.0,5.0
82,"133, Avenue Emile-Zola",attraction,84055,48.846856,2.293631,Paris,Le Cosmos,4b2ccc02f964a5205bc924e3,Bar,http://tour-pedia.org/api/getPlaceDetails?id=84055,http://tour-pedia.org/api/getReviewsByPlaceId?placeId=84055,98,71,1,,,,4.0,1.0,3.0,5.0,5.0
83,81 Avenue Gambetta,attraction,84108,48.865041,2.398658,Paris,Café Gambetta,4b3a66c7f964a520716625e3,Bar,http://tour-pedia.org/api/getPlaceDetails?id=84108,http://tour-pedia.org/api/getReviewsByPlaceId?placeId=84108,163,42,3,,,,4.0,1.0,3.0,5.0,5.0
84,16 rue de la Butte-aux-Cailles,attraction,84115,48.8279062549,2.3511000924898,Paris,Sputnik,4b3ba3f9f964a520bf7725e3,Bar,http://tour-pedia.org/api/getPlaceDetails?id=84115,http://tour-pedia.org/api/getReviewsByPlaceId?placeId=84115,394,142,1,,,,4.0,1.0,3.0,5.0,5.0
85,126 rue Oberkampf,attraction,84120,48.866327000000005,2.379881,Paris,Le styx,4b3d3527f964a520479025e3,Bar,http://tour-pedia.org/api/getPlaceDetails?id=84120,http://tour-pedia.org/api/getReviewsByPlaceId?placeId=84120,226,93,0,,,,4.0,1.0,3.0,5.0,5.0
86,Rue Francoeur,attraction,84127,48.889758,2.342694,Paris,Café Francoeur,4b3f1888f964a520f8a325e3,Bar,http://tour-pedia.org/api/getPlaceDetails?id=84127,http://tour-pedia.org/api/getReviewsByPlaceId?placeId=84127,449,192,1,,,,4.0,1.0,3.0,5.0,5.0
87,15 rue de la Butte aux Cailles,attraction,84132,48.827721000000004,2.349955,Paris,Chez Michel,4b3f6d38f964a520b5a625e3,Bar,http://tour-pedia.org/api/getPlaceDetails?id=84132,http://tour-pedia.org/api/getReviewsByPlaceId?placeId=84132,154,62,0,,,,4.0,1.0,3.0,5.0,5.0
88,"25, rue Corentin Cariou",attraction,84139,48.897014,2.384871,Paris,Les pierres qui roulent,4b408925f964a520cfb825e3,Bar,http://tour-pedia.org/api/getPlaceDetails?id=84139,http://tour-pedia.org/api/getReviewsByPlaceId?placeId=84139,2346,950,5,,,,4.0,1.0,3.0,5.0,5.0
89,21 quai de Montebello,attraction,84146,48.852289685788,2.348163003051,Paris,Cafe Panis,4b42e8acf964a520dbda25e3,Bar,http://tour-pedia.org/api/getPlaceDetails?id=84146,http://tour-pedia.org/api/getReviewsByPlaceId?placeId=84146,534,262,2,,,,4.0,1.0,3.0,5.0,5.0
90,32 Avenue des Champs-Élysees,attraction,84152,48.869780458602,2.3081312752909,Paris,Unisex,4b44e42df964a5206dff25e3,Bar,http://tour-pedia.org/api/getPlaceDetails?id=84152,http://tour-pedia.org/api/getReviewsByPlaceId?placeId=84152,977,494,3,,,,4.0,1.0,3.0,5.0,5.0
91,46 rue du Faubourg Saint-Denis,attraction,84166,48.871559999999995,2.353579,Paris,Le Mauri'7,4b463eadf964a5204c1b26e3,Bar,http://tour-pedia.org/api/getPlaceDetails?id=84166,http://tour-pedia.org/api/getReviewsByPlaceId?placeId=84166,45,45,0,,,,4.0,1.0,3.0,5.0,5.0
92,7 Rue Sainte-Croix de la Bretonnerie,attraction,84194,48.857956,2.356663,Paris,La Panfoulia,4b491047f964a520466426e3,Bar,http://tour-pedia.org/api/getPlaceDetails?id=84194,http://tour-pedia.org/api/getReviewsByPlaceId?placeId=84194,185,93,0,,,,4.0,1.0,3.0,5.0,5.0
93,27 Rue de Cotte,attraction,84202,48.850128999999995,2.378135,Paris,Le Troll Café,4b49fffff964a5208e7726e3,Bar,http://tour-pedia.org/api/getPlaceDetails?id=84202,http://tour-pedia.org/api/getReviewsByPlaceId?placeId=84202,14,5,1,,,,4.0,1.0,3.0,5.0,5.0
94,74 Rue des Martyrs,attraction,84206,48.882158723123,2.3395299911499,Paris,La Fourmi,4b4a4e60f964a520358326e3,Bar,http://tour-pedia.org/api/getPlaceDetails?id=84206,http://tour-pedia.org/api/getReviewsByPlaceId?placeId=84206,772,420,12,,,,4.0,1.0,3.0,5.0,5.0
95,59 boulevard de Montparnasse,attraction,84233,48.843920219757,2.3231713043,Paris,La Marine,4b4c80b9f964a520a3b426e3,Bar,http://tour-pedia.org/api/getPlaceDetails?id=84233,http://tour-pedia.org/api/getReviewsByPlaceId?placeId=84233,1357,166,1,,,,4.0,1.0,3.0,5.0,5.0
96,88 rue Lepic,attraction,84237,48.8873343,2.336192,Paris,Autour du Moulin,4b4cfe16f964a520f2c626e3,Bar,http://tour-pedia.org/api/getPlaceDetails?id=84237,http://tour-pedia.org/api/getReviewsByPlaceId?placeId=84237,2742,1062,7,,,,4.0,1.0,3.0,5.0,5.0
97,4 Boulevard Malesherbes,attraction,84254,48.870544205445,2.3234367370605002,Paris,Le Forvm,4b4f3c82f964a52055fe26e3,Bar,http://tour-pedia.org/api/getPlaceDetails?id=84254,http://tour-pedia.org/api/getReviewsByPlaceId?placeId=84254,925,204,2,,,,4.0,1.0,3.0,5.0,5.0
98,Pl. Octave Chanute,attraction,84270,48.866521,2.406241,Paris,Le Country Bar,4b5070bdf964a520582327e3,Bar,http://tour-pedia.org/api/getPlaceDetails?id=84270,http://tour-pedia.org/api/getReviewsByPlaceId?placeId=84270,725,115,2,,,,4.0,1.0,3.0,5.0,5.0
99,13 rue de la Butte aux Cailles,attraction,84278,48.827721725,2.3501790000000002,Paris,La Taverne de la Butte,4b50dac2f964a5206f3527e3,Bar,http://tour-pedia.org/api/getPlaceDetails?id=84278,http://tour-pedia.org/api/getReviewsByPlaceId?placeId=84278,471,202,8,,,,4.0,1.0,3.0,5.0,5.0
100,61 rue Réaumur,attraction,84287,48.866758346556,2.350961,Paris,Café Lazar,4b51be5df964a520265427e3,Bar,http://tour-pedia.org/api/getPlaceDetails?id=84287,http://tour-pedia.org/api/getReviewsByPlaceId?placeId=84287,1123,744,26,,,,4.0,1.0,3.0,5.0,5.0
101,307 Rue du Faubourg Saint-Antoine,attraction,84296,48.848909895525,2.3927144414822004,Paris,Extra Old Café,4b52402ff964a520c47227e3,Bar,http://tour-pedia.org/api/getPlaceDetails?id=84296,http://tour-pedia.org/api/getReviewsByPlaceId?placeId=84296,886,557,7,,,,4.0,1.0,3.0,5.0,5.0
102,168 Boulevard Diderot,attraction,84297,48.847854250314995,2.3927664756775,Paris,La Mère Pouchet,4b5241cbf964a5201f7327e3,Bar,http://tour-pedia.org/api/getPlaceDetails?id=84297,http://tour-pedia.org/api/getReviewsByPlaceId?placeId=84297,897,409,15,,,,4.0,1.0,3.0,5.0,5.0
103,1 Rue Ramey,attraction,84331,48.886953149323,2.3476779003661,Paris,Au Clair de Lune,4b55fe1df964a520d5fa27e3,Bar,http://tour-pedia.org/api/getPlaceDetails?id=84331,http://tour-pedia.org/api/getReviewsByPlaceId?placeId=84331,1339,1026,28,,,,4.0,1.0,3.0,5.0,5.0
104,149 boulevard Voltaire,attraction,84338,48.85546812563,2.3842692375183,Paris,Café Léopard,4b56c775f964a520051b28e3,Bar,http://tour-pedia.org/api/getPlaceDetails?id=84338,http://tour-pedia.org/api/getReviewsByPlaceId?placeId=84338,1666,1302,20,,,,4.0,1.0,3.0,5.0,5.0
105,103 rue Julien Lacroix,attraction,84368,48.87305084878199,2.3819764147866,Paris,Culture Rapide,4b59a24df964a5200c9028e3,Bar,http://tour-pedia.org/api/getPlaceDetails?id=84368,http://tour-pedia.org/api/getReviewsByPlaceId?placeId=84368,1351,1034,11,,,,4.0,1.0,3.0,5.0,5.0
106,11 Rue de la Butte aux Cailles,attraction,84397,48.827778,2.350402,Paris,Le Merle Moqueur,4b5b95c0f964a520f00829e3,Bar,http://tour-pedia.org/api/getPlaceDetails?id=84397,http://tour-pedia.org/api/getReviewsByPlaceId?placeId=84397,1175,805,9,,,,4.0,1.0,3.0,5.0,5.0
107,108 boulevard de Belleville,attraction,84427,48.870417178802995,2.3780250549316,Paris,La Cantine de Belleville,4b5e357af964a520d48329e3,Bar,http://tour-pedia.org/api/getPlaceDetails?id=84427,http://tour-pedia.org/api/getReviewsByPlaceId?placeId=84427,634,468,6,,,,4.0,1.0,3.0,5.0,5.0
108,3 avenue des Gobelins,attraction,84429,48.838371,2.350669,Paris,Verse Toujours,4b5ea484f964a520b89429e3,Bar,http://tour-pedia.org/api/getPlaceDetails?id=84429,http://tour-pedia.org/api/getReviewsByPlaceId?placeId=84429,3567,2472,27,,,,4.0,1.0,3.0,5.0,5.0
109,100 Rue Legendre,attraction,84501,48.887520875755996,2.3203034970657,Paris,La Legende,4b633791f964a5204a6b2ae3,Bar,http://tour-pedia.org/api/getPlaceDetails?id=84501,http://tour-pedia.org/api/getReviewsByPlaceId?placeId=84501,12618,7511,115,,,,4.0,1.0,3.0,5.0,5.0
110,75 avenue de Saint-Ouen,attraction,84503,48.892475,2.3273770000000003,Paris,Le Bar belge,4b633feaf964a5207d6d2ae3,Bar,http://tour-pedia.org/api/getPlaceDetails?id=84503,http://tour-pedia.org/api/getReviewsByPlaceId?placeId=84503,6581,4038,53,,,,4.0,1.0,3.0,5.0,5.0
111,105 Rue Oberkampf,attraction,84526,48.865866942374,2.3775234818458997,Paris,La Place Verte,4b64b68ef964a5206cca2ae3,Bar,http://tour-pedia.org/api/getPlaceDetails?id=84526,http://tour-pedia.org/api/getReviewsByPlaceId?placeId=84526,2603,2120,38,,,,4.0,1.0,3.0,5.0,5.0
112,103 Rue de Belleville,attraction,84536,48.874492,2.3863129321991,Paris,Le Bariolé,4b65be3af964a520fffc2ae3,Bar,http://tour-pedia.org/api/getPlaceDetails?id=84536,http://tour-pedia.org/api/getReviewsByPlaceId?placeId=84536,25225,5522,70,,,,4.0,1.0,3.0,5.0,5.0
113,4bis Rue Neuve Popincourt,attraction,84616,48.864420803041,2.3740906711911003,Paris,Udo Bar,4b6c6d58f964a52041392ce3,Bar,http://tour-pedia.org/api/getPlaceDetails?id=84616,http://tour-pedia.org/api/getReviewsByPlaceId?placeId=84616,7939,4831,97,,,,4.0,1.0,3.0,5.0,5.0
114,12 Rue Victor Letalle,attraction,84620,48.867278128659,2.3852728798538996,Paris,La Féline,4b6cabadf964a520f04a2ce3,Bar,http://tour-pedia.org/api/getPlaceDetails?id=84620,http://tour-pedia.org/api/getReviewsByPlaceId?placeId=84620,1039,845,4,,,,4.0,1.0,3.0,5.0,5.0
115,194-198 Rue du Faubourg Saint-Antoine,attraction,84644,48.850120603882,2.3843783126505,Paris,Le Bidule,4b6ec0d1f964a5200dc92ce3,Bar,http://tour-pedia.org/api/getPlaceDetails?id=84644,http://tour-pedia.org/api/getReviewsByPlaceId?placeId=84644,598,204,0,,,,4.0,1.0,3.0,5.0,5.0
116,158 rue Oberkampf,attraction,84690,48.866934,2.3822400000000004,Paris,Café de Paris,4b71c55bf964a520805b2de3,Bar,http://tour-pedia.org/api/getPlaceDetails?id=84690,http://tour-pedia.org/api/getReviewsByPlaceId?placeId=84690,3083,1187,13,,,,4.0,1.0,3.0,5.0,5.0
117,99 rue Jean-Pierre Timbaud,attraction,84691,48.868643471429,2.380091,Paris,L'Assassin,4b71c629f964a520b05b2de3,Bar,http://tour-pedia.org/api/getPlaceDetails?id=84691,http://tour-pedia.org/api/getReviewsByPlaceId?placeId=84691,33,24,2,,,,4.0,1.0,3.0,5.0,5.0
118,72 bis rue Jean-Pierre Timbaud,attraction,84693,48.867222709476,2.3755761913615,Paris,L'Orange Mécanique,4b71e64ff964a520f3622de3,Bar,http://tour-pedia.org/api/getPlaceDetails?id=84693,http://tour-pedia.org/api/getReviewsByPlaceId?placeId=84693,211,169,0,,,,4.0,1.0,3.0,5.0,5.0
119,"46, Boulevard Voltaire",attraction,84694,48.863524578175,2.3706994602974,Paris,Apérock Café,4b71f162f964a520a0652de3,Bar,http://tour-pedia.org/api/getPlaceDetails?id=84694,http://tour-pedia.org/api/getReviewsByPlaceId?placeId=84694,847,633,5,,,,4.0,1.0,3.0,5.0,5.0
120,90 boulevard de l'Hôpital,attraction,84728,48.836648,2.359216,Paris,La Ménagerie,4b7479e9f964a520d6de2de3,Bar,http://tour-pedia.org/api/getPlaceDetails?id=84728,http://tour-pedia.org/api/getReviewsByPlaceId?placeId=84728,6109,3805,88,,,,4.0,1.0,3.0,5.0,5.0
121,67 quai de Seine,attraction,84733,48.887955781608,2.3772163150289,Paris,Café Le Bastringue,4b757183f964a520d10c2ee3,Bar,http://tour-pedia.org/api/getPlaceDetails?id=84733,http://tour-pedia.org/api/getReviewsByPlaceId?placeId=84733,262,172,2,,,,4.0,1.0,3.0,5.0,5.0
122,"54, avenue de Saint-Mandé",attraction,84747,48.84487876,2.4025297164917,Paris,Café Cosy,4b76754af964a5202c4d2ee3,Bar,http://tour-pedia.org/api/getPlaceDetails?id=84747,http://tour-pedia.org/api/getReviewsByPlaceId?placeId=84747,177,114,4,,,,4.0,1.0,3.0,5.0,5.0
123,200 Quai de Valmy,attraction,84761,48.881255625249004,2.3688840866089,Paris,Point Éphémère,4b7728aef964a5206c832ee3,Bar,http://tour-pedia.org/api/getPlaceDetails?id=84761,http://tour-pedia.org/api/getReviewsByPlaceId?placeId=84761,8909,5674,137,,,,4.0,1.0,3.0,5.0,5.0
124,68 Quai de la Loire,attraction,84846,48.886625857531996,2.3769920049268998,Paris,BarOurcq,4b7d76ecf964a5202cc02fe3,Bar,http://tour-pedia.org/api/getPlaceDetails?id=84846,http://tour-pedia.org/api/getReviewsByPlaceId?placeId=84846,154,77,0,,,,4.0,1.0,3.0,5.0,5.0
125,65 Rue Jean-Baptiste Pigalle,attraction,84871,48.881185070041,2.3361611366272004,Paris,Le Sans Souci,4b7f1c49f964a520381730e3,Bar,http://tour-pedia.org/api/getPlaceDetails?id=84871,http://tour-pedia.org/api/getReviewsByPlaceId?placeId=84871,1524,1052,9,,,,4.0,1.0,3.0,5.0,5.0
126,6 place du Colonel Fabien,attraction,84925,48.877963,2.3707540000000003,Paris,Café des Dames,4b8387e0f964a520ea0831e3,Bar,http://tour-pedia.org/api/getPlaceDetails?id=84925,http://tour-pedia.org/api/getReviewsByPlaceId?placeId=84925,922,250,8,,,,4.0,1.0,3.0,5.0,5.0
127,"21 Rue Copreaux, 75015 Paris, Ile-de-France",attraction,84966,48.841696352824,2.3069990796149,Paris,Le drapeau de la fidelité,4b882004f964a52086e131e3,Bar,http://tour-pedia.org/api/getPlaceDetails?id=84966,http://tour-pedia.org/api/getReviewsByPlaceId?placeId=84966,192,88,1,,,,4.0,1.0,3.0,5.0,5.0
128,13 rue Moret,attraction,84975,48.867061007492,2.3795113835542003,Paris,La Cantada II,4b89033ef964a5201c1832e3,Bar,http://tour-pedia.org/api/getPlaceDetails?id=84975,http://tour-pedia.org/api/getReviewsByPlaceId?placeId=84975,182,125,2,,,,4.0,1.0,3.0,5.0,5.0
129,25 rue de Lappe,attraction,85037,48.853699053993,2.3727658273371004,Paris,Hideout,4b8ecb20f964a520773733e3,Bar,http://tour-pedia.org/api/getPlaceDetails?id=85037,http://tour-pedia.org/api/getReviewsByPlaceId?placeId=85037,93,75,0,,,,4.0,1.0,3.0,5.0,5.0
130,56 rue des cinq diamants,attraction,85050,48.827838039306,2.3494112491607995,Paris,Le Diamant,4b900529f964a520957033e3,Bar,http://tour-pedia.org/api/getPlaceDetails?id=85050,http://tour-pedia.org/api/getReviewsByPlaceId?placeId=85050,128,23,0,,,,4.0,1.0,3.0,5.0,5.0
131,"7, rue des Moines",attraction,85118,48.887812,2.318389,Paris,Le Manoir,4b9691f9f964a52089d534e3,Bar,http://tour-pedia.org/api/getPlaceDetails?id=85118,http://tour-pedia.org/api/getReviewsByPlaceId?placeId=85118,13,10,0,,,,4.0,1.0,3.0,5.0,5.0
132,11 rue Lapeyrère,attraction,85155,48.892203487005,2.3430024047907,Paris,L'Alibi,4b994143f964a520ed6d35e3,Bar,http://tour-pedia.org/api/getPlaceDetails?id=85155,http://tour-pedia.org/api/getReviewsByPlaceId?placeId=85155,579,235,5,,,,4.0,1.0,3.0,5.0,5.0
133,"76, avenue de la Grande Armée",attraction,85239,48.877195,2.284592,Paris,La Terrasse Bar,4b9fc8bef964a520613e37e3,Bar,http://tour-pedia.org/api/getPlaceDetails?id=85239,http://tour-pedia.org/api/getReviewsByPlaceId?placeId=85239,1189,775,7,,,,4.0,1.0,3.0,5.0,5.0
134,129 avenue du Général Leclerc,attraction,85244,48.823174,2.325856,Paris,Paris Orléans,4ba00389f964a520515237e3,Bar,http://tour-pedia.org/api/getPlaceDetails?id=85244,http://tour-pedia.org/api/getReviewsByPlaceId?placeId=85244,1769,858,7,,,,4.0,1.0,3.0,5.0,5.0
135,51 rue Lacépède,attraction,85245,48.844419,2.349798,Paris,The Wall,4ba00f5cf964a5208f5637e3,Bar,http://tour-pedia.org/api/getPlaceDetails?id=85245,http://tour-pedia.org/api/getReviewsByPlaceId?placeId=85245,1099,520,13,,,,4.0,1.0,3.0,5.0,5.0
136,337 rue de Belleville,attraction,85274,48.876843732614,2.4052646735664998,Paris,Le Rigoletto,4ba29291f964a520830538e3,Bar,http://tour-pedia.org/api/getPlaceDetails?id=85274,http://tour-pedia.org/api/getReviewsByPlaceId?placeId=85274,524,422,10,,,,4.0,1.0,3.0,5.0,5.0
137,3 rue Biot,attraction,85291,48.883808050965996,2.3267342310434,Paris,Le Cyrano,4ba3e69df964a520ae6b38e3,Bar,http://tour-pedia.org/api/getPlaceDetails?id=85291,http://tour-pedia.org/api/getReviewsByPlaceId?placeId=85291,4109,2768,170,,,,4.0,1.0,3.0,5.0,5.0
138,13 Rue Jean-Baptiste Dumay,attraction,85325,48.874747370438996,2.3878587037325,Paris,La Cagnotte,4ba73ff9f964a520dd8739e3,Bar,http://tour-pedia.org/api/getPlaceDetails?id=85325,http://tour-pedia.org/api/getReviewsByPlaceId?placeId=85325,1878,656,20,,,,4.0,1.0,3.0,5.0,5.0
139,74 boulevard Diderot,attraction,85368,48.846855692986004,2.3818797685788997,Paris,Le Bistrologue,4bab3a33f964a5206b9a3ae3,Bar,http://tour-pedia.org/api/getPlaceDetails?id=85368,http://tour-pedia.org/api/getReviewsByPlaceId?placeId=85368,3263,1936,23,,,,4.0,1.0,3.0,5.0,5.0
140,19 rue Pascal,attraction,85397,48.837775,2.349371,Paris,La Tactique,4bacc638f964a520340b3be3,Bar,http://tour-pedia.org/api/getPlaceDetails?id=85397,http://tour-pedia.org/api/getReviewsByPlaceId?placeId=85397,7177,1442,10,,,,4.0,1.0,3.0,5.0,5.0
141,170 rue d'alésia,attraction,85441,48.83177088165999,2.3141660229217997,Paris,Café Chineur,4bb19f36f964a520659c3ce3,Bar,http://tour-pedia.org/api/getPlaceDetails?id=85441,http://tour-pedia.org/api/getReviewsByPlaceId?placeId=85441,1012,332,8,,,,4.0,1.0,3.0,5.0,5.0
142,15 rue de la butte aux cailles,attraction,85456,48.827628999999995,2.350062,Paris,Le Diapason,4bb28a222397b7131d2c37b3,Bar,http://tour-pedia.org/api/getPlaceDetails?id=85456,http://tour-pedia.org/api/getReviewsByPlaceId?placeId=85456,3511,1068,26,,,,4.0,1.0,3.0,5.0,5.0
143,39 Boulevard du Port Royal,attraction,85480,48.837668019775,2.3454759999999997,Paris,Val Café,4bb4f501310276b0ea97cf90,Bar,http://tour-pedia.org/api/getPlaceDetails?id=85480,http://tour-pedia.org/api/getReviewsByPlaceId?placeId=85480,1121,531,6,,,,4.0,1.0,3.0,5.0,5.0
144,56 rue de Bagnolet,attraction,85555,48.857590596183,2.3992092956223,Paris,L'Abribus Café,4bbb78099858d13af76133a2,Bar,http://tour-pedia.org/api/getPlaceDetails?id=85555,http://tour-pedia.org/api/getReviewsByPlaceId?placeId=85555,1256,450,11,,,,4.0,1.0,3.0,5.0,5.0
145,108 rue Ménilmontant,attraction,85556,48.869602,2.393357,Paris,Chez Luna,4bbb782ae6e7b7132819f879,Bar,http://tour-pedia.org/api/getPlaceDetails?id=85556,http://tour-pedia.org/api/getReviewsByPlaceId?placeId=85556,5432,2459,27,,,,4.0,1.0,3.0,5.0,5.0
146,63 Rue Jean-Pierre Timbaud,attraction,85615,48.867174,2.375521,Paris,Le Petit Garage,4bbf956bb492d13a50e8a260,Bar,http://tour-pedia.org/api/getPlaceDetails?id=85615,http://tour-pedia.org/api/getReviewsByPlaceId?placeId=85615,1110,492,1,,,,4.0,1.0,3.0,5.0,5.0
147,15 Rue de Bagnolet,attraction,85619,48.856731798389,2.3956744094875,Paris,Piston Pélican,4bbfa606461576b033ed7832,Bar,http://tour-pedia.org/api/getPlaceDetails?id=85619,http://tour-pedia.org/api/getReviewsByPlaceId?placeId=85619,707,532,10,,,,4.0,1.0,3.0,5.0,5.0
148,32 rue Sainte-Marthe,attraction,85633,48.874096,2.372629,Paris,La Sardine,4bc09933461576b045597a32,Bar,http://tour-pedia.org/api/getPlaceDetails?id=85633,http://tour-pedia.org/api/getReviewsByPlaceId?placeId=85633,2073,1099,20,,,,4.0,1.0,3.0,5.0,5.0
149,9 place du Général Beuret,attraction,85652,48.841743251457004,2.3032128810883,Paris,Le Général Beuret,4bc1e02974a9a593c753d2f6,Bar,http://tour-pedia.org/api/getPlaceDetails?id=85652,http://tour-pedia.org/api/getReviewsByPlaceId?placeId=85652,5165,2936,22,,,,4.0,1.0,3.0,5.0,5.0
150,334 Rue des Pyrénées,attraction,85670,48.873328,2.390047,Paris,Les Rigoles,4bc37f7d920eb713288b1d2c,Bar,http://tour-pedia.org/api/getPlaceDetails?id=85670,http://tour-pedia.org/api/getReviewsByPlaceId?placeId=85670,257,103,2,,,,4.0,1.0,3.0,5.0,5.0
151,Rue Philippe Auguste,attraction,85704,48.849386875723,2.395360893508,Paris,Royal Nation,4bc6380a04e8b713aba5352d,Bar,http://tour-pedia.org/api/getPlaceDetails?id=85704,http://tour-pedia.org/api/getReviewsByPlaceId?placeId=85704,4367,1896,20,,,,4.0,1.0,3.0,5.0,5.0
152,43 Rue de Lappe,attraction,85825,48.853260654128,2.3736342349034,Paris,Some Girls Bar,4bccdc0868f976b0086b6383,Bar,http://tour-pedia.org/api/getPlaceDetails?id=85825,http://tour-pedia.org/api/getReviewsByPlaceId?placeId=85825,716,418,2,,,,4.0,1.0,3.0,5.0,5.0
153,Place de la porte de bagnolet,attraction,85873,48.864210713039,2.4073530833605,Paris,le Vingtième,4bd02d8bcaff95210a50cef0,Bar,http://tour-pedia.org/api/getPlaceDetails?id=85873,http://tour-pedia.org/api/getReviewsByPlaceId?placeId=85873,1187,541,10,,,,4.0,1.0,3.0,5.0,5.0
154,58 rue Gauthey,attraction,85958,48.893763973623,2.3222540680827,Paris,Irène et Bernard,4bd6df80cfa7b7135f2d28da,Bar,http://tour-pedia.org/api/getPlaceDetails?id=85958,http://tour-pedia.org/api/getReviewsByPlaceId?placeId=85958,5723,2351,33,,,,4.0,1.0,3.0,5.0,5.0
155,55 quai de la Seine,attraction,86011,48.886705,2.3752720000000003,Paris,Péniche Antipode,4bd9f8053904a5931778449e,Bar,http://tour-pedia.org/api/getPlaceDetails?id=86011,http://tour-pedia.org/api/getReviewsByPlaceId?placeId=86011,774,224,6,,,,4.0,1.0,3.0,5.0,5.0
156,106 rue de Charonne,attraction,86075,48.854712910471,2.3853967593633,Paris,L'Ingenu,4be095c34f15c92885b7cb0b,Bar,http://tour-pedia.org/api/getPlaceDetails?id=86075,http://tour-pedia.org/api/getReviewsByPlaceId?placeId=86075,1209,696,10,,,,4.0,1.0,3.0,5.0,5.0
157,34 Rue Durantin,attraction,86112,48.886568,2.3357118428571,Paris,Prohibido,4be45061bcef2d7ffa5e02e5,Bar,http://tour-pedia.org/api/getPlaceDetails?id=86112,http://tour-pedia.org/api/getReviewsByPlaceId?placeId=86112,847,629,0,,,,4.0,1.0,3.0,5.0,5.0
158,36 rue Henri Chevreau,attraction,86139,48.870303503111,2.3891037864293,Paris,Le Popul'Air,4be6e26ccf200f478df5143c,Bar,http://tour-pedia.org/api/getPlaceDetails?id=86139,http://tour-pedia.org/api/getReviewsByPlaceId?placeId=86139,232,213,1,,,,4.0,1.0,3.0,5.0,5.0
159,234 boulevard Raspail,attraction,86143,48.839255597769004,2.3307560457404,Paris,Café des Arts,4be7a7bfd837c9b64279a406,Bar,http://tour-pedia.org/api/getPlaceDetails?id=86143,http://tour-pedia.org/api/getReviewsByPlaceId?placeId=86143,1256,442,23,,,,4.0,1.0,3.0,5.0,5.0
160,5 Rue de Chaumont,attraction,86148,48.881475,2.372024,Paris,La Bicyclette café,4be84b9e88ed2d7f38b2cb1d,Bar,http://tour-pedia.org/api/getPlaceDetails?id=86148,http://tour-pedia.org/api/getReviewsByPlaceId?placeId=86148,2272,1464,72,,,,4.0,1.0,3.0,5.0,5.0
161,6 avenue Jean Aicard,attraction,86178,48.864762344963,2.381445863515,Paris,La Fine Mousse,4beb0bac62c0c92806a1e1d4,Bar,http://tour-pedia.org/api/getPlaceDetails?id=86178,http://tour-pedia.org/api/getReviewsByPlaceId?placeId=86178,1836,1094,4,,,,4.0,1.0,3.0,5.0,5.0
162,36 rue de Clignancourt,attraction,86251,48.886672452854995,2.3475664650128,Paris,Le Troquet,4bf41b65cad2c92852859b99,Bar,http://tour-pedia.org/api/getPlaceDetails?id=86251,http://tour-pedia.org/api/getReviewsByPlaceId?placeId=86251,2372,619,33,,,,4.0,1.0,3.0,5.0,5.0
163,2 avenue René Coty,attraction,86281,48.833508024374,2.3327941489858,Paris,Le Lakanal,4bf6d70913aed13aba4beaf7,Bar,http://tour-pedia.org/api/getPlaceDetails?id=86281,http://tour-pedia.org/api/getReviewsByPlaceId?placeId=86281,3865,2549,28,,,,4.0,1.0,3.0,5.0,5.0
164,rue du Château Landon,attraction,86406,48.879038345413,2.3623499709477,Paris,Château-Landon,4c0804c0bbc676b053e045d5,Bar,http://tour-pedia.org/api/getPlaceDetails?id=86406,http://tour-pedia.org/api/getReviewsByPlaceId?placeId=86406,1317,821,45,,,,4.0,1.0,3.0,5.0,5.0
165,148 Rue du Faubourg Saint-Martin,attraction,86420,48.8754249,2.3598265,Paris,Café A,4c0a9132ffb8c9b65ec66b61,Bar,http://tour-pedia.org/api/getPlaceDetails?id=86420,http://tour-pedia.org/api/getReviewsByPlaceId?placeId=86420,3002,2062,48,,,,4.0,1.0,3.0,5.0,5.0
166,33 rue de la Butte aux Cailles,attraction,86492,48.827511697637995,2.3482695849191,Paris,La Folie en Tête,4c17886f30d30f47e49f36a9,Bar,http://tour-pedia.org/api/getPlaceDetails?id=86492,http://tour-pedia.org/api/getReviewsByPlaceId?placeId=86492,2113,1197,83,,,,4.0,1.0,3.0,5.0,5.0
167,13 rue d'Odessa,attraction,86497,48.842282082823,2.3244539220409,Paris,La Vache au Comptoir,4c18abab6a21c9b68049c997,Bar,http://tour-pedia.org/api/getPlaceDetails?id=86497,http://tour-pedia.org/api/getReviewsByPlaceId?placeId=86497,709,125,2,,,,4.0,1.0,3.0,5.0,5.0
168,18-22 Rue des Panoyaux,attraction,86511,48.866364000000004,2.386101,Paris,Cale Sèche,4c1bb7b7b306c928b9a962b7,Bar,http://tour-pedia.org/api/getPlaceDetails?id=86511,http://tour-pedia.org/api/getReviewsByPlaceId?placeId=86511,1656,500,14,,,,4.0,1.0,3.0,5.0,5.0
169,103 boulevard Malesherbes,attraction,86695,48.87940704594,2.3141455650330003,Paris,Grand Café de la Poste,4c408696e26920a147005de7,Bar,http://tour-pedia.org/api/getPlaceDetails?id=86695,http://tour-pedia.org/api/getReviewsByPlaceId?placeId=86695,220,68,0,,,,4.0,1.0,3.0,5.0,5.0
170,9 rue Alfred Bruneau,attraction,86737,48.856021999999996,2.277902,Paris,Le diplomate PMU,4c48049a417b20a16593dfa9,Bar,http://tour-pedia.org/api/getPlaceDetails?id=86737,http://tour-pedia.org/api/getReviewsByPlaceId?placeId=86737,328,165,4,,,,4.0,1.0,3.0,5.0,5.0
171,58 Rue la Condamine,attraction,86839,48.885806857496995,2.3213984067271,Paris,Le Petit Village,4c62de51de1b2d7fbc4fe370,Bar,http://tour-pedia.org/api/getPlaceDetails?id=86839,http://tour-pedia.org/api/getReviewsByPlaceId?placeId=86839,992,667,8,,,,4.0,1.0,3.0,5.0,5.0
172,8 boulevard de Denain,attraction,86919,48.879251462243005,2.3542504129494,Paris,Hideout,4c77ba3259a3236a3c8cc218,Bar,http://tour-pedia.org/api/getPlaceDetails?id=86919,http://tour-pedia.org/api/getReviewsByPlaceId?placeId=86919,6054,3665,75,,,,4.0,1.0,3.0,5.0,5.0
173,230 boulevard Voltaire,attraction,86925,48.852269184974006,2.3892067247233997,Paris,L'Aquarium,4c7944282d3ba143438f8dd0,Bar,http://tour-pedia.org/api/getPlaceDetails?id=86925,http://tour-pedia.org/api/getReviewsByPlaceId?placeId=86925,9903,4008,70,,,,4.0,1.0,3.0,5.0,5.0
174,325 rue Lecourbe,attraction,86993,48.837414,2.284985,Paris,Chez Roberto,4c83d503e602b1f72934a97a,Bar,http://tour-pedia.org/api/getPlaceDetails?id=86993,http://tour-pedia.org/api/getReviewsByPlaceId?placeId=86993,3555,1106,19,,,,4.0,1.0,3.0,5.0,5.0
175,41 Quai de l'Oise,attraction,87015,48.892421999999996,2.385491,Paris,La Plage,4c87d51633453704662b1672,Bar,http://tour-pedia.org/api/getPlaceDetails?id=87015,http://tour-pedia.org/api/getReviewsByPlaceId?placeId=87015,2340,607,5,,,,4.0,1.0,3.0,5.0,5.0
176,4 boulevard de Grenelle,attraction,87028,48.854129,2.289024,Paris,Eiffel Café,4c8a68233dc2a1cde49cac32,Bar,http://tour-pedia.org/api/getPlaceDetails?id=87028,http://tour-pedia.org/api/getReviewsByPlaceId?placeId=87028,467,161,2,,,,4.0,1.0,3.0,5.0,5.0
177,16 Rue de Cotte,attraction,87033,48.850009,2.378104,Paris,Nul Bar Ailleurs,4c8ab85052a98cfac1422fe9,Bar,http://tour-pedia.org/api/getPlaceDetails?id=87033,http://tour-pedia.org/api/getReviewsByPlaceId?placeId=87033,1886,911,16,,,,4.0,1.0,3.0,5.0,5.0
178,88-90 avenue de Saint-Ouen,attraction,87057,48.893162,2.327514,Paris,Le Championnet,4c91c475ae45224bb5afea97,Bar,http://tour-pedia.org/api/getPlaceDetails?id=87057,http://tour-pedia.org/api/getReviewsByPlaceId?placeId=87057,530,217,5,,,,4.0,1.0,3.0,5.0,5.0
179,70 rue du rendez-vous,attraction,87068,48.846797649788,2.4003343247848,Paris,Le Rendez-Vous,4c93701bfc9a224bd486faf1,Bar,http://tour-pedia.org/api/getPlaceDetails?id=87068,http://tour-pedia.org/api/getReviewsByPlaceId?placeId=87068,1877,982,18,,,,4.0,1.0,3.0,5.0,5.0
180,5 rue André Antoine,attraction,87214,48.882829420482,2.3374882665804,Paris,Rock & Roll Circus Bar,4cae2da5562d224ba7f80388,Bar,http://tour-pedia.org/api/getPlaceDetails?id=87214,http://tour-pedia.org/api/getReviewsByPlaceId?placeId=87214,565,258,3,,,,4.0,1.0,3.0,5.0,5.0
181,28 rue Keller,attraction,87282,48.855312824026,2.3755359649658,Paris,Bacardi Mojito Lab,4cc065af97bc721e502d8b67,Bar,http://tour-pedia.org/api/getPlaceDetails?id=87282,http://tour-pedia.org/api/getReviewsByPlaceId?placeId=87282,1700,1316,17,,,,4.0,1.0,3.0,5.0,5.0
182,12 avenue Mozart,attraction,87379,48.857554,2.273364,Paris,Le Mozart,4cdd69fbfc9737042cd0db05,Bar,http://tour-pedia.org/api/getPlaceDetails?id=87379,http://tour-pedia.org/api/getReviewsByPlaceId?placeId=87379,862,337,4,,,,4.0,1.0,3.0,5.0,5.0
183,14 Rue Lincoln,attraction,87506,48.870464813831994,2.3031377792358,Paris,Cottage Élysée,4d0ba747d8d78cfa9d561ebe,Bar,http://tour-pedia.org/api/getPlaceDetails?id=87506,http://tour-pedia.org/api/getReviewsByPlaceId?placeId=87506,1337,637,15,,,,4.0,1.0,3.0,5.0,5.0
184,208 avenue Jean Jaurès,attraction,87516,48.888788885618,2.3926786291591,Paris,Biclowne Café,4d0fdcc2e23654817a4074ea,Bar,http://tour-pedia.org/api/getPlaceDetails?id=87516,http://tour-pedia.org/api/getReviewsByPlaceId?placeId=87516,419,221,8,,,,4.0,1.0,3.0,5.0,5.0
185,1 Rue de Lyon,attraction,87532,48.845865058578994,2.3724233645621,Paris,L'Express de Lyon,4d18b5a381cea35d278befec,Bar,http://tour-pedia.org/api/getPlaceDetails?id=87532,http://tour-pedia.org/api/getReviewsByPlaceId?placeId=87532,390,214,2,,,,4.0,1.0,3.0,5.0,5.0
186,4 avenue Carnot,attraction,87539,48.875126,2.2938509999999996,Paris,Le Vin CÅ“ur,4d1b85c570d76ea809cf4e73,Bar,http://tour-pedia.org/api/getPlaceDetails?id=87539,http://tour-pedia.org/api/getReviewsByPlaceId?placeId=87539,1849,813,16,,,,4.0,1.0,3.0,5.0,5.0
187,20 Rue de la Forge Royale,attraction,87594,48.851664808069,2.3806204109082003,Paris,Twenty One Sound,4d30f199982f224b1d30b615,Bar,http://tour-pedia.org/api/getPlaceDetails?id=87594,http://tour-pedia.org/api/getReviewsByPlaceId?placeId=87594,1208,209,1,,,,4.0,1.0,3.0,5.0,5.0
188,386 rue de Vaugirard,attraction,87678,48.832789668626006,2.2881734880908,Paris,Dupont Versailles,4d4c4f05190ba093eb721fa5,Bar,http://tour-pedia.org/api/getPlaceDetails?id=87678,http://tour-pedia.org/api/getReviewsByPlaceId?placeId=87678,258,150,0,,,,4.0,1.0,3.0,5.0,5.0
189,18 avenue de Flandre,attraction,87714,48.885306158247005,2.3702576102992,Paris,Le Zèbre dans le Patio,4d571769c6edf04dc303d9a2,Bar,http://tour-pedia.org/api/getPlaceDetails?id=87714,http://tour-pedia.org/api/getReviewsByPlaceId?placeId=87714,1442,1024,10,,,,4.0,1.0,3.0,5.0,5.0
190,6 Rue Planchat,attraction,87732,48.851955026164,2.3993161059745,Paris,Le Bouillon Belge,4d5c34299c31b60c4345b2ee,Bar,http://tour-pedia.org/api/getPlaceDetails?id=87732,http://tour-pedia.org/api/getReviewsByPlaceId?placeId=87732,933,526,24,,,,4.0,1.0,3.0,5.0,5.0
191,104 rue de bagnolet,attraction,87745,48.859689008701,2.4029401834952004,Paris,Gambetta Club,4d616b6ab6b9a1cd9e188751,Bar,http://tour-pedia.org/api/getPlaceDetails?id=87745,http://tour-pedia.org/api/getReviewsByPlaceId?placeId=87745,2539,838,13,,,,4.0,1.0,3.0,5.0,5.0
192,17 rue d'Avron,attraction,87771,48.851558091109,2.3994267479476004,Paris,Le Bistrot d'Avron,4d6d429e8183a143b4b3a19f,Bar,http://tour-pedia.org/api/getPlaceDetails?id=87771,http://tour-pedia.org/api/getReviewsByPlaceId?placeId=87771,121,72,0,,,,4.0,1.0,3.0,5.0,5.0
193,88 rue Oberkampf,attraction,87787,48.865501086086,2.3765560838864,Paris,Bar Les Pirates,4d6fe2710187236a3ca3a2ba,Bar,http://tour-pedia.org/api/getPlaceDetails?id=87787,http://tour-pedia.org/api/getReviewsByPlaceId?placeId=87787,976,657,4,,,,4.0,1.0,3.0,5.0,5.0
194,64 Rue des Pyrénées,attraction,87870,48.853012453263,2.4059649011139,Paris,Le Piano,4d8260f5f1f88cfac95ddf4f,Bar,http://tour-pedia.org/api/getPlaceDetails?id=87870,http://tour-pedia.org/api/getReviewsByPlaceId?placeId=87870,2055,1577,24,,,,4.0,1.0,3.0,5.0,5.0
195,bd clichy,attraction,87873,48.823889,2.42285,Paris,The Hap,4d826efa9b7ab1f721745341,Bar,http://tour-pedia.org/api/getPlaceDetails?id=87873,http://tour-pedia.org/api/getReviewsByPlaceId?placeId=87873,1138,967,2,,,,4.0,1.0,3.0,5.0,5.0
196,37 avenue Aristide Briand,attraction,87965,48.819314648199,2.3258427535607997,Paris,Le Nemrod,4d9200edf5388cfa720ec23d,Bar,http://tour-pedia.org/api/getPlaceDetails?id=87965,http://tour-pedia.org/api/getReviewsByPlaceId?placeId=87965,2918,1143,30,,,,4.0,1.0,3.0,5.0,5.0
197,12 rue Joseph de Maistre,attraction,87989,48.88652665502,2.3332075576933,Paris,The 7th Bar,4d9767b4c162530c571f00a4,Bar,http://tour-pedia.org/api/getPlaceDetails?id=87989,http://tour-pedia.org/api/getReviewsByPlaceId?placeId=87989,308,99,2,,,,4.0,1.0,3.0,5.0,5.0
198,"17, rue Boinod",attraction,88018,48.8930957747,2.350928548667,Paris,La Casserole,4d9e2dd952aca143e12fd69e,Bar,http://tour-pedia.org/api/getPlaceDetails?id=88018,http://tour-pedia.org/api/getReviewsByPlaceId?placeId=88018,971,641,6,,,,4.0,1.0,3.0,5.0,5.0
199,33 rue Boinod,attraction,88029,48.894299076462005,2.3498894100628998,Paris,La piscine,4da17c3ed686b60c9c13a628,Bar,http://tour-pedia.org/api/getPlaceDetails?id=88029,http://tour-pedia.org/api/getReviewsByPlaceId?placeId=88029,12924,3557,31,,,,4.0,1.0,3.0,5.0,5.0
200,"49, rue Pixérécourt",attraction,88057,48.872797267018,2.3964081654873,Paris,Le Clin's,4da89b1181541df437c12a7a,Bar,http://tour-pedia.org/api/getPlaceDetails?id=88057,http://tour-pedia.org/api/getReviewsByPlaceId?placeId=88057,2211,1473,22,,,,4.0,1.0,3.0,5.0,5.0
201,257 rue de Vaugirard,attraction,88122,48.839968,2.303125,Paris,Novotel Lounge Bar View,4db715e334dc9e33c797c3ee,Bar,http://tour-pedia.org/api/getPlaceDetails?id=88122,http://tour-pedia.org/api/getReviewsByPlaceId?placeId=88122,2363,1017,8,,,,4.0,1.0,3.0,5.0,5.0
202,Rue de Thionville,attraction,88146,48.889368,2.3835439999999997,Paris,Café Mama Kin,4dbc61196e810768bf5d4105,Bar,http://tour-pedia.org/api/getPlaceDetails?id=88146,http://tour-pedia.org/api/getReviewsByPlaceId?placeId=88146,1575,579,16,,,,4.0,1.0,3.0,5.0,5.0
203,1 Bis Rue de la Forge Royale,attraction,88370,48.850685260443,2.3801464759282998,Paris,Red House,4df27f9622718759f81c6b9f,Bar,http://tour-pedia.org/api/getPlaceDetails?id=88370,http://tour-pedia.org/api/getReviewsByPlaceId?placeId=88370,20677,6948,106,,,,4.0,1.0,3.0,5.0,5.0
204,Galerie de la Villette,attraction,88514,48.890244191333,2.3907174385921,Paris,La Villette Enchantée,4e1f293918a813a4dac73cfa,Bar,http://tour-pedia.org/api/getPlaceDetails?id=88514,http://tour-pedia.org/api/getReviewsByPlaceId?placeId=88514,192,111,8,,,,4.0,1.0,3.0,5.0,5.0
205,299 rue Lecourbe,attraction,88553,48.837817132628004,2.2870820760727004,Paris,Heure Sup,4e29f824814d7599e42da2c7,Bar,http://tour-pedia.org/api/getPlaceDetails?id=88553,http://tour-pedia.org/api/getReviewsByPlaceId?placeId=88553,474,275,4,,,,4.0,1.0,3.0,5.0,5.0
206,48 Rue Claude Decaen,attraction,88826,48.838707,2.396251,Paris,Zic Zinc,4e6a353e88772457c457ff30,Bar,http://tour-pedia.org/api/getPlaceDetails?id=88826,http://tour-pedia.org/api/getReviewsByPlaceId?placeId=88826,3689,2044,33,,,,4.0,1.0,3.0,5.0,5.0
207,Rue de la Tombe Issoire,attraction,88833,48.830116346871996,2.3338114912706,Paris,Le Petit Club,4e6b541d7d8b143eb77d78a9,Bar,http://tour-pedia.org/api/getPlaceDetails?id=88833,http://tour-pedia.org/api/getReviewsByPlaceId?placeId=88833,779,357,2,,,,4.0,1.0,3.0,5.0,5.0
208,15 Rue du Maine,attraction,88867,48.840620525873,2.3222136497498,Paris,L'Adada Bar,4e71fbb7091a8493b3553126,Bar,http://tour-pedia.org/api/getPlaceDetails?id=88867,http://tour-pedia.org/api/getReviewsByPlaceId?placeId=88867,1347,787,28,,,,4.0,1.0,3.0,5.0,5.0
209,6 rue André Antoine,attraction,89236,48.88284991787,2.3374319940528,Paris,Le Kremlin,4eda7f7d0aaf49e029b6992d,Bar,http://tour-pedia.org/api/getPlaceDetails?id=89236,http://tour-pedia.org/api/getReviewsByPlaceId?placeId=89236,382,206,5,,,,4.0,1.0,3.0,5.0,5.0
210,Bois de Boulogne,attraction,89601,48.859062123922996,2.2380839159949,Paris,Buvettes du Bois de Boulogne,4f6217f1e4b07ccaa60459fd,Bar,http://tour-pedia.org/api/getPlaceDetails?id=89601,http://tour-pedia.org/api/getReviewsByPlaceId?placeId=89601,157,95,0,,,,4.0,1.0,3.0,5.0,5.0
211,3 Rue Baudelique,attraction,89697,48.892213,2.347014,Paris,Le Supercoin,4f809d1fe4b00084da893d50,Bar,http://tour-pedia.org/api/getPlaceDetails?id=89697,http://tour-pedia.org/api/getReviewsByPlaceId?placeId=89697,1684,532,16,,,,4.0,1.0,3.0,5.0,5.0
212,4 rue Meyerbeer,attraction,89701,48.871923042306,2.3336069675138997,Paris,W Lounge,4f82f70ce4b0d9965c28857c,Bar,http://tour-pedia.org/api/getPlaceDetails?id=89701,http://tour-pedia.org/api/getReviewsByPlaceId?placeId=89701,45,19,0,,,,4.0,1.0,3.0,5.0,5.0
213,19 Avenue Victoria,attraction,89931,48.858224882245,2.3463719826774,Paris,Le Dernier Bar avant la Fin du Monde,4fd21c85e4b08315f264bdd5,Bar,http://tour-pedia.org/api/getPlaceDetails?id=89931,http://tour-pedia.org/api/getReviewsByPlaceId?placeId=89931,641,340,8,,,,4.0,1.0,3.0,5.0,5.0
214,82 Rue de Charenton,attraction,89938,48.848825022044004,2.3753106594086,Paris,Le Calbar,4fd3c3137b0c4fe0be8ea3a6,Bar,http://tour-pedia.org/api/getPlaceDetails?id=89938,http://tour-pedia.org/api/getReviewsByPlaceId?placeId=89938,668,185,1,,,,4.0,1.0,3.0,5.0,5.0
215,3 Rue Muller,attraction,89973,48.886836634206,2.347135052393,Paris,Rosie,4fe22707e4b0f60bf225ed20,Bar,http://tour-pedia.org/api/getPlaceDetails?id=89973,http://tour-pedia.org/api/getReviewsByPlaceId?placeId=89973,471,159,5,,,,4.0,1.0,3.0,5.0,5.0
216,92 rue de Hauteville,attraction,90057,48.877037797119996,2.3513777930845,Paris,Les Animals,50007b67e4b0a7c211ff29d0,Bar,http://tour-pedia.org/api/getPlaceDetails?id=90057,http://tour-pedia.org/api/getReviewsByPlaceId?placeId=90057,511,222,7,,,,4.0,1.0,3.0,5.0,5.0
217,24 Rue Dumeril,attraction,90118,48.836317448056,2.3583235776927003,Paris,La Fà»t Gueuze,50141bfbe4b0e259d321d731,Bar,http://tour-pedia.org/api/getPlaceDetails?id=90118,http://tour-pedia.org/api/getReviewsByPlaceId?placeId=90118,1084,423,12,,,,4.0,1.0,3.0,5.0,5.0
218,7 rue Frochot,attraction,90192,48.881549240386,2.3374094560306,Paris,Glass,503c84a4e4b01d1549ca1b87,Bar,http://tour-pedia.org/api/getPlaceDetails?id=90192,http://tour-pedia.org/api/getReviewsByPlaceId?placeId=90192,681,300,5,,,,4.0,1.0,3.0,5.0,5.0
219,13 Bd Ménilmontant,attraction,90231,48.859340156209996,2.3891361008655,Paris,le Purgatoire,504b7921e4b0c450c2619167,Bar,http://tour-pedia.org/api/getPlaceDetails?id=90231,http://tour-pedia.org/api/getReviewsByPlaceId?placeId=90231,387,225,3,,,,4.0,1.0,3.0,5.0,5.0
220,20 rue Beautreillis,attraction,90304,48.853318945721,2.3640343859675,Paris,Sherry Butt,505a06b7e4b0f81baba6bce6,Bar,http://tour-pedia.org/api/getPlaceDetails?id=90304,http://tour-pedia.org/api/getReviewsByPlaceId?placeId=90304,322,96,2,,,,4.0,1.0,3.0,5.0,5.0
221,64 Rue Alexandre Dumas,attraction,90342,48.854232788086,2.3950209617615,Paris,Au Bon Accueil,5065f4a7e4b0c68e4c85ac7c,Bar,http://tour-pedia.org/api/getPlaceDetails?id=90342,http://tour-pedia.org/api/getReviewsByPlaceId?placeId=90342,58,49,0,,,,4.0,1.0,3.0,5.0,5.0
222,60 rue Charlot,attraction,90453,48.863675371867,2.3635738841906004,Paris,Little Red Door,5079f1e0e4b0eb8b83f90b0d,Bar,http://tour-pedia.org/api/getPlaceDetails?id=90453,http://tour-pedia.org/api/getReviewsByPlaceId?placeId=90453,171,71,1,,,,4.0,1.0,3.0,5.0,5.0
223,32 Rue Cler,attraction,90471,48.857035146019,2.3063305654391,Paris,L'Éclair,50810ddde4b0fedebcd47049,Bar,http://tour-pedia.org/api/getPlaceDetails?id=90471,http://tour-pedia.org/api/getReviewsByPlaceId?placeId=90471,1371,579,15,,,,4.0,1.0,3.0,5.0,5.0
224,62 Avenue Des Gobelins,attraction,90498,48.833244531191994,2.3540812580527,Paris,La Manufacture,508d54a6e4b05f3f844df8fa,Bar,http://tour-pedia.org/api/getPlaceDetails?id=90498,http://tour-pedia.org/api/getReviewsByPlaceId?placeId=90498,900,331,7,,,,4.0,1.0,3.0,5.0,5.0
225,96 Rue De Ménilmontant,attraction,90523,48.869309,2.392211,Paris,Le Bouillon St Stefanus,509aadc9498ebbcaf475ff6f,Bar,http://tour-pedia.org/api/getPlaceDetails?id=90523,http://tour-pedia.org/api/getReviewsByPlaceId?placeId=90523,765,250,7,,,,4.0,1.0,3.0,5.0,5.0
226,50 rue Descartes,attraction,90534,48.84505,2.349091,Paris,Chapi Chapo,509d593ce4b07eb4d84a9f78,Bar,http://tour-pedia.org/api/getPlaceDetails?id=90534,http://tour-pedia.org/api/getReviewsByPlaceId?placeId=90534,643,289,13,,,,4.0,1.0,3.0,5.0,5.0
227,17 Bd Arago,attraction,90698,48.835965384756,2.3497142103314,Paris,La Belette Qui Tète,50e87be7e4b0ae33c541697a,Bar,http://tour-pedia.org/api/getPlaceDetails?id=90698,http://tour-pedia.org/api/getReviewsByPlaceId?placeId=90698,458,329,4,,,,4.0,1.0,3.0,5.0,5.0
228,8 Rue Frochot,attraction,90737,48.881528125147,2.337308329879,Paris,Dirty Dick,50f98ef5e4b0f610ba0faa99,Bar,http://tour-pedia.org/api/getPlaceDetails?id=90737,http://tour-pedia.org/api/getReviewsByPlaceId?placeId=90737,1253,407,6,,,,4.0,1.0,3.0,5.0,5.0
229,149 rue Montmartre,attraction,90855,48.8702531,2.342653,Paris,La Java,512d1159e4b038890e520faa,Bar,http://tour-pedia.org/api/getPlaceDetails?id=90855,http://tour-pedia.org/api/getReviewsByPlaceId?placeId=90855,568,369,7,,,,4.0,1.0,3.0,5.0,5.0
230,98 Rue De Tolbiac,attraction,90950,48.826504858191996,2.3637678459612004,Paris,O Soleil,514de425e4b0fb27135227df,Bar,http://tour-pedia.org/api/getPlaceDetails?id=90950,http://tour-pedia.org/api/getReviewsByPlaceId?placeId=90950,1526,725,33,,,,4.0,1.0,3.0,5.0,5.0
231,53 bis Avenue de la Motte-Picquet,attraction,90990,48.850123514335,2.2996290175783,Paris,Le Pavillon,5159f643e4b07ee87b9154c6,Bar,http://tour-pedia.org/api/getPlaceDetails?id=90990,http://tour-pedia.org/api/getReviewsByPlaceId?placeId=90990,841,327,8,,,,4.0,1.0,3.0,5.0,5.0
232,3 rue Joseph Dijon,attraction,91074,48.893787767279996,2.34738049526,Paris,Le Petit Joseph Dijon,51718019e4b0d5bc92a73b93,Bar,http://tour-pedia.org/api/getPlaceDetails?id=91074,http://tour-pedia.org/api/getReviewsByPlaceId?placeId=91074,789,695,20,,,,4.0,1.0,3.0,5.0,5.0
233,14 Rue Crespin du Gast,attraction,91121,48.865381748157,2.3817672477881002,Paris,Le Perchoir,5183f149498eff6233941d44,Bar,http://tour-pedia.org/api/getPlaceDetails?id=91121,http://tour-pedia.org/api/getReviewsByPlaceId?placeId=91121,3216,896,6,,,,4.0,1.0,3.0,5.0,5.0
234,94 rue du Mont Cenis,attraction,91280,48.894802,2.345581,Paris,Le petit Mont-Cenis,51b20489498e1f05217283ad,Bar,http://tour-pedia.org/api/getPlaceDetails?id=91280,http://tour-pedia.org/api/getReviewsByPlaceId?placeId=91280,13417,4837,193,,,,4.0,1.0,3.0,5.0,5.0
235,75 place du docteur Félix Lobligeois,attraction,91322,48.886754242742995,2.31728724849,Paris,Felixio,51bcbf80498ecc5705b4bbf5,Bar,http://tour-pedia.org/api/getPlaceDetails?id=91322,http://tour-pedia.org/api/getReviewsByPlaceId?placeId=91322,5242,2296,20,,,,4.0,1.0,3.0,5.0,5.0
236,Port des Invalides,attraction,91341,48.863142236497005,2.3154413250427,Paris,En Attendant Rosa,51c1eaf5498e33adc109c41a,Bar,http://tour-pedia.org/api/getPlaceDetails?id=91341,http://tour-pedia.org/api/getReviewsByPlaceId?placeId=91341,3635,2277,36,,,,4.0,1.0,3.0,5.0,5.0
237,Quai d'Orsay,attraction,91385,48.86304873741901,2.3128695207011,Paris,Faust,51cdcd3d498e603a905fb78d,Bar,http://tour-pedia.org/api/getPlaceDetails?id=91385,http://tour-pedia.org/api/getReviewsByPlaceId?placeId=91385,672,185,2,,,,4.0,1.0,3.0,5.0,5.0
238,36 Rue de Paradis,attraction,91412,48.875293198209,2.3509612045140997,Paris,Le Fantôme,51d5b55d498eece3eed8f599,Bar,http://tour-pedia.org/api/getPlaceDetails?id=91412,http://tour-pedia.org/api/getReviewsByPlaceId?placeId=91412,498,106,3,,,,4.0,1.0,3.0,5.0,5.0
239,8 passage Thiéré,attraction,91564,48.853558,2.374557,Paris,La Mécanique Ondulatoire,521e2e7011d2336371eb2bc7,Bar,http://tour-pedia.org/api/getPlaceDetails?id=91564,http://tour-pedia.org/api/getReviewsByPlaceId?placeId=91564,2164,554,1,,,,4.0,1.0,3.0,5.0,5.0
240,14 rue Bochart de Saron,attraction,91648,48.880973175233,2.3425811336994,Paris,Artisan,523221a311d27660ba7fb36e,Bar,http://tour-pedia.org/api/getPlaceDetails?id=91648,http://tour-pedia.org/api/getReviewsByPlaceId?placeId=91648,3644,1769,19,,,,4.0,1.0,3.0,5.0,5.0
241,181 Avenue Jean Jaurès,attraction,91843,48.887702000000004,2.388843,Paris,Café Jean,5258349e11d27692860d7673,Bar,http://tour-pedia.org/api/getPlaceDetails?id=91843,http://tour-pedia.org/api/getReviewsByPlaceId?placeId=91843,304,149,2,,,,4.0,1.0,3.0,5.0,5.0
242,59-63 rue du Département,attraction,91888,48.886811325543,2.359601836208,Paris,Les 3 Fauves,526c238d498eb8f777fe6fd6,Bar,http://tour-pedia.org/api/getPlaceDetails?id=91888,http://tour-pedia.org/api/getReviewsByPlaceId?placeId=91888,17,13,0,,,,4.0,1.0,3.0,5.0,5.0
243,15 Rue des Archives,attraction,84004,48.858155839295996,2.3549157218692995,Paris,Le Cox,4b23dd27f964a5207c5b24e3,Bar,http://tour-pedia.org/api/getPlaceDetails?id=84004,http://tour-pedia.org/api/getReviewsByPlaceId?placeId=84004,498,90,2,,,,4.0,1.0,3.0,5.0,5.0
244,23 rue du Temple,attraction,84063,48.858771700171005,2.3535418510437003,Paris,Raidd Bar,4b2d105cf964a5206ecd24e3,Bar,http://tour-pedia.org/api/getPlaceDetails?id=84063,http://tour-pedia.org/api/getReviewsByPlaceId?placeId=84063,848,303,15,,,,4.0,1.0,3.0,5.0,5.0
245,18 rue du Temple,attraction,85488,48.858529016855,2.3534346294132997,Paris,Voulez-Vous,4bb5dd68941ad13a6c941ee3,Bar,http://tour-pedia.org/api/getPlaceDetails?id=85488,http://tour-pedia.org/api/getReviewsByPlaceId?placeId=85488,1290,709,28,,,,4.0,1.0,3.0,5.0,5.0
246,89 avenue du général de gaule,attraction,87448,48.836857054422,2.4194769483074,Paris,Chez les petites filles du coin,4cfaad3ddccef04d48cdb69c,Bar,http://tour-pedia.org/api/getPlaceDetails?id=87448,http://tour-pedia.org/api/getReviewsByPlaceId?placeId=87448,1552,678,27,,,,4.0,1.0,3.0,5.0,5.0
247,8 rue de Navarin,attraction,83256,48.87961034033,2.3393825451216,Paris,Hôtel Amour,4ac79395f964a52021b820e3,Bar,http://tour-pedia.org/api/getPlaceDetails?id=83256,http://tour-pedia.org/api/getReviewsByPlaceId?placeId=83256,618,327,10,,,,4.0,1.0,3.0,5.0,5.0
248,43 Avenue Bugeaud,attraction,84766,48.870321459552,2.2799030474997997,Paris,St James Club,4b77f147f964a52097af2ee3,Bar,http://tour-pedia.org/api/getPlaceDetails?id=84766,http://tour-pedia.org/api/getReviewsByPlaceId?placeId=84766,1139,554,4,,,,4.0,1.0,3.0,5.0,5.0
249,45 boulevard Raspail,attraction,84949,48.851190096202004,2.327127456665,Paris,Bar du Lutetia,4b86a7bff964a520889431e3,Bar,http://tour-pedia.org/api/getPlaceDetails?id=84949,http://tour-pedia.org/api/getReviewsByPlaceId?placeId=84949,10292,4521,42,,,,4.0,1.0,3.0,5.0,5.0
250,81 Blvd. Gouvion Saint-Cyr,attraction,85275,48.879479827648,2.2855858886626,Paris,Jazz Club Etoile,4ba29f3ff964a520170a38e3,Bar,http://tour-pedia.org/api/getPlaceDetails?id=85275,http://tour-pedia.org/api/getReviewsByPlaceId?placeId=85275,493,323,8,,,,4.0,1.0,3.0,5.0,5.0
251,Hyatt Regency Paris Etoile (33e étage),attraction,85349,48.880013839047,2.2843837738037003,Paris,Bar La Vue,4ba90942f964a5209a053ae3,Bar,http://tour-pedia.org/api/getPlaceDetails?id=85349,http://tour-pedia.org/api/getReviewsByPlaceId?placeId=85349,136,44,2,,,,4.0,1.0,3.0,5.0,5.0
252,5 Avenue Silvestre de Sacy,attraction,87427,48.858672878455,2.2967863082886,Paris,EIFFEL ParK,4cf0ff0c12e78eec47615447,Bar,http://tour-pedia.org/api/getPlaceDetails?id=87427,http://tour-pedia.org/api/getReviewsByPlaceId?placeId=87427,1030,496,11,,,,4.0,1.0,3.0,5.0,5.0
253,10 Avenue d'Iéna,attraction,88577,48.863627841267004,2.2927308082581,Paris,Bar du Shangri-La Hotel,4e3050621838f1c552ce829f,Bar,http://tour-pedia.org/api/getPlaceDetails?id=88577,http://tour-pedia.org/api/getReviewsByPlaceId?placeId=88577,4422,1077,4,,,,4.0,1.0,3.0,5.0,5.0
254,239 Rue Saint-Honoré,attraction,90774,48.866697763157994,2.3278721256882005,Paris,Bar de l'Hôtel Costes,510b0485e4b0607cd9a25947,Bar,http://tour-pedia.org/api/getPlaceDetails?id=90774,http://tour-pedia.org/api/getReviewsByPlaceId?placeId=90774,718,199,0,,,,4.0,1.0,3.0,5.0,5.0
255,92 Boulevard de Clichy,attraction,83364,48.883926392328995,2.3321795723089,Paris,O'Sullivan's by the mill : Backstage by the mill,4adcda04f964a5204a3221e3,Bar,http://tour-pedia.org/api/getPlaceDetails?id=83364,http://tour-pedia.org/api/getReviewsByPlaceId?placeId=83364,473,319,0,,,,4.0,1.0,3.0,5.0,5.0
256,77 rue Saint-Dominique,attraction,83395,48.859823799534,2.3086759131341,Paris,O'Brien's Irish Pub,4adcda06f964a520b63221e3,Bar,http://tour-pedia.org/api/getPlaceDetails?id=83395,http://tour-pedia.org/api/getReviewsByPlaceId?placeId=83395,494,256,5,,,,4.0,1.0,3.0,5.0,5.0
257,5 Rue de Presbourg,attraction,83396,48.872161787079,2.2952509305632995,Paris,Sir Winston,4adcda06f964a520bc3221e3,Bar,http://tour-pedia.org/api/getPlaceDetails?id=83396,http://tour-pedia.org/api/getReviewsByPlaceId?placeId=83396,1120,560,11,,,,4.0,1.0,3.0,5.0,5.0
258,17 Rue de l'Ancienne Comédie,attraction,83399,48.852877154365,2.3390702392648,Paris,Pub Saint-Germain,4adcda06f964a520c13221e3,Bar,http://tour-pedia.org/api/getPlaceDetails?id=83399,http://tour-pedia.org/api/getReviewsByPlaceId?placeId=83399,628,315,18,,,,4.0,1.0,3.0,5.0,5.0
259,32 Rue Muller,attraction,83422,48.886402000000004,2.3451400000000002,Paris,Le Soleil de la Butte,4adcda07f964a520163321e3,Bar,http://tour-pedia.org/api/getPlaceDetails?id=83422,http://tour-pedia.org/api/getReviewsByPlaceId?placeId=83422,1136,455,2,,,,4.0,1.0,3.0,5.0,5.0
260,110 Boulevard de Clichy,attraction,83781,48.884444616735,2.3306465148926003,Paris,Corcoran's,4af1a988f964a520f3e121e3,Bar,http://tour-pedia.org/api/getPlaceDetails?id=83781,http://tour-pedia.org/api/getReviewsByPlaceId?placeId=83781,5780,1843,40,,,,4.0,1.0,3.0,5.0,5.0
261,13 quai des Grands Augustins,attraction,83789,48.8540715,2.343848,Paris,Galway,4af2034af964a5201de521e3,Bar,http://tour-pedia.org/api/getPlaceDetails?id=83789,http://tour-pedia.org/api/getReviewsByPlaceId?placeId=83789,895,528,9,,,,4.0,1.0,3.0,5.0,5.0
262,42 Rue du Montparnasse,attraction,83902,48.842784,2.3261279999999998,Paris,Falstaff,4b11a855f964a520908123e3,Bar,http://tour-pedia.org/api/getPlaceDetails?id=83902,http://tour-pedia.org/api/getReviewsByPlaceId?placeId=83902,465,249,3,,,,4.0,1.0,3.0,5.0,5.0
263,1 Boulevard Montmartre,attraction,83966,48.871419269109,2.3428773880005,Paris,O'Sullivans café bar,4b1e960ff964a5201c1c24e3,Bar,http://tour-pedia.org/api/getPlaceDetails?id=83966,http://tour-pedia.org/api/getReviewsByPlaceId?placeId=83966,1067,368,11,,,,4.0,1.0,3.0,5.0,5.0
264,72 rue Falguière,attraction,84048,48.840376138687,2.3129439353943,Paris,Le Bréguet,4b2bee8cf964a520f5bd24e3,Bar,http://tour-pedia.org/api/getPlaceDetails?id=84048,http://tour-pedia.org/api/getReviewsByPlaceId?placeId=84048,467,194,4,,,,4.0,1.0,3.0,5.0,5.0
265,153 rue du Chevaleret,attraction,84173,48.832583,2.371197,Paris,Shannon River,4b466390f964a520761f26e3,Bar,http://tour-pedia.org/api/getPlaceDetails?id=84173,http://tour-pedia.org/api/getReviewsByPlaceId?placeId=84173,8955,4319,136,,,,4.0,1.0,3.0,5.0,5.0
266,53 Rue du Faubourg Saint-Antoine,attraction,84184,48.852121975337,2.3726177215576003,Paris,Corcoran's,4b4882e5f964a520754e26e3,Bar,http://tour-pedia.org/api/getPlaceDetails?id=84184,http://tour-pedia.org/api/getReviewsByPlaceId?placeId=84184,413,175,3,,,,4.0,1.0,3.0,5.0,5.0
267,184 rue Saint-Jacques,attraction,84393,48.846189185881,2.3429845694717,Paris,Wide Open Spaces Bar,4b5b3fd2f964a5204aee28e3,Bar,http://tour-pedia.org/api/getPlaceDetails?id=84393,http://tour-pedia.org/api/getReviewsByPlaceId?placeId=84393,1347,1092,13,,,,4.0,1.0,3.0,5.0,5.0
268,23 boulevard Poissonnière,attraction,84498,48.871389028809006,2.344156996193,Paris,Corcoran's,4b63227df964a5208f652ae3,Bar,http://tour-pedia.org/api/getPlaceDetails?id=84498,http://tour-pedia.org/api/getReviewsByPlaceId?placeId=84498,981,712,19,,,,4.0,1.0,3.0,5.0,5.0
269,110 Bis Avenue Kléber,attraction,84870,48.864630067544006,2.2883319854736,Paris,Frog XVI,4b7f1482f964a520031530e3,Bar,http://tour-pedia.org/api/getPlaceDetails?id=84870,http://tour-pedia.org/api/getReviewsByPlaceId?placeId=84870,950,506,9,,,,4.0,1.0,3.0,5.0,5.0
270,10 Rue de la Chaussée d'Antin,attraction,85182,48.871616862012,2.3335647583008,Paris,Murphy's House,4b9bad00f964a520201936e3,Bar,http://tour-pedia.org/api/getPlaceDetails?id=85182,http://tour-pedia.org/api/getReviewsByPlaceId?placeId=85182,1890,1011,36,,,,4.0,1.0,3.0,5.0,5.0
271,88 rue de la Croix Nivert,attraction,85351,48.843711875858,2.2958978951281,Paris,Celtic corner,4ba91233f964a520d5083ae3,Bar,http://tour-pedia.org/api/getPlaceDetails?id=85351,http://tour-pedia.org/api/getReviewsByPlaceId?placeId=85351,6134,3489,34,,,,4.0,1.0,3.0,5.0,5.0
272,73 boulevard du Montparnasse,attraction,85497,48.843524,2.3245430000000002,Paris,Café La Ruche,4bb62a641344b713bb129d04,Bar,http://tour-pedia.org/api/getPlaceDetails?id=85497,http://tour-pedia.org/api/getReviewsByPlaceId?placeId=85497,5824,2574,16,,,,4.0,1.0,3.0,5.0,5.0
273,Avenue Kléber,attraction,85551,48.865913419753,2.2892517343462004,Paris,Pub Kleber,4bbb5756cf2fc9b6d172a202,Bar,http://tour-pedia.org/api/getPlaceDetails?id=85551,http://tour-pedia.org/api/getReviewsByPlaceId?placeId=85551,2617,1380,22,,,,4.0,1.0,3.0,5.0,5.0
274,"13, rue d'Artois",attraction,85723,48.87312305303799,2.307535987592,Paris,The Bowler,4bc8455814d7952194b768e9,Bar,http://tour-pedia.org/api/getPlaceDetails?id=85723,http://tour-pedia.org/api/getReviewsByPlaceId?placeId=85723,4452,1637,33,,,,4.0,1.0,3.0,5.0,5.0
275,68/70 quai de Jemmapes,attraction,85730,48.871567999999996,2.36505,Paris,The Cork and Cavan,4bc8989492b376b088b9513a,Bar,http://tour-pedia.org/api/getPlaceDetails?id=85730,http://tour-pedia.org/api/getReviewsByPlaceId?placeId=85730,1872,95,3,,,,4.0,1.0,3.0,5.0,5.0
276,32 boulevard du Docteur Cunéo,attraction,86215,48.823889,2.42285,Paris,Bar a Thym,4bef1c54c80dc928958427e3,Bar,http://tour-pedia.org/api/getPlaceDetails?id=86215,http://tour-pedia.org/api/getReviewsByPlaceId?placeId=86215,380,168,4,,,,4.0,1.0,3.0,5.0,5.0
277,17 boulevard Poissonnière,attraction,86365,48.871066422699,2.3450231552124,Paris,James Hetfeeld's Pub,4c011df7cf3aa5934a75ccb0,Bar,http://tour-pedia.org/api/getPlaceDetails?id=86365,http://tour-pedia.org/api/getReviewsByPlaceId?placeId=86365,540,222,1,,,,4.0,1.0,3.0,5.0,5.0
278,Rue de Dunkerque,attraction,86530,48.879986513598006,2.3552998128552995,Paris,Au Rendez-Vous des Belges,4c1e7748eac020a1d7c249c2,Bar,http://tour-pedia.org/api/getPlaceDetails?id=86530,http://tour-pedia.org/api/getReviewsByPlaceId?placeId=86530,1273,636,8,,,,4.0,1.0,3.0,5.0,5.0
279,9 rue Brunel,attraction,87939,48.876890909298,2.2886788693595,Paris,Saint Andrews,4d8d036afa943704366ddec5,Bar,http://tour-pedia.org/api/getPlaceDetails?id=87939,http://tour-pedia.org/api/getReviewsByPlaceId?placeId=87939,3317,546,5,,,,4.0,1.0,3.0,5.0,5.0
280,Boul. Périphérique,attraction,90517,48.877473725788,2.4097394943237003,Paris,Corcoran's,509586c2e4b0ad0d95c63c8f,Bar,http://tour-pedia.org/api/getPlaceDetails?id=90517,http://tour-pedia.org/api/getReviewsByPlaceId?placeId=90517,377,110,5,,,,4.0,1.0,3.0,5.0,5.0
281,98 rue Oberkampf,attraction,90586,48.865924560531,2.3781477484974,Paris,O'Connells,50b4ff81e4b047f57d9e2075,Bar,http://tour-pedia.org/api/getPlaceDetails?id=90586,http://tour-pedia.org/api/getReviewsByPlaceId?placeId=90586,371,227,5,,,,4.0,1.0,3.0,5.0,5.0
282,25 Rue Frédéric Sauton,attraction,83389,48.850441,2.348763,Paris,The Long Hop,4adcda05f964a5209a3221e3,Bar,http://tour-pedia.org/api/getPlaceDetails?id=83389,http://tour-pedia.org/api/getReviewsByPlaceId?placeId=83389,77,30,0,,,,4.0,1.0,3.0,5.0,5.0
283,71 bd Gouvion Saint-Cyr,attraction,83397,48.880062339663,2.2848123623526,Paris,James Joyce Pub,4adcda06f964a520bd3221e3,Bar,http://tour-pedia.org/api/getPlaceDetails?id=83397,http://tour-pedia.org/api/getReviewsByPlaceId?placeId=83397,1620,839,3,,,,4.0,1.0,3.0,5.0,5.0
284,94 rue de Ménilmontant,attraction,83434,48.869172999999996,2.391884,Paris,Le Café des Sports,4adcda07f964a520573321e3,Bar,http://tour-pedia.org/api/getPlaceDetails?id=83434,http://tour-pedia.org/api/getReviewsByPlaceId?placeId=83434,2440,931,10,,,,4.0,1.0,3.0,5.0,5.0
285,33 Rue de Montreuil,attraction,83851,48.850497662889005,2.3864671828427,Paris,Patrick's,4b059828f964a5209bdf22e3,Bar,http://tour-pedia.org/api/getPlaceDetails?id=83851,http://tour-pedia.org/api/getReviewsByPlaceId?placeId=83851,490,276,3,,,,4.0,1.0,3.0,5.0,5.0
286,10 rue de la Montagne Saint-Geneviève,attraction,83856,48.849119,2.3486569999999998,Paris,La Lucha Libre,4b06db70f964a52096f122e3,Bar,http://tour-pedia.org/api/getPlaceDetails?id=83856,http://tour-pedia.org/api/getReviewsByPlaceId?placeId=83856,1500,402,7,,,,4.0,1.0,3.0,5.0,5.0
287,15 rue du Départ,attraction,84727,48.842576452916,2.3238658905029,Paris,The Financier,4b74797bf964a520c2de2de3,Bar,http://tour-pedia.org/api/getPlaceDetails?id=84727,http://tour-pedia.org/api/getReviewsByPlaceId?placeId=84727,605,412,2,,,,4.0,1.0,3.0,5.0,5.0
288,75 Rue Brancion,attraction,86523,48.831705,2.302979,Paris,Aux Sportifs Réunis,4c1df6478b3aa593ff5b9b5f,Bar,http://tour-pedia.org/api/getPlaceDetails?id=86523,http://tour-pedia.org/api/getReviewsByPlaceId?placeId=86523,386,173,1,,,,4.0,1.0,3.0,5.0,5.0
289,1 rue Théophile Roussel,attraction,83358,48.849622701075,2.377436673654,Paris,Le Baron Rouge,4adcda04f964a520393221e3,Bar,http://tour-pedia.org/api/getPlaceDetails?id=83358,http://tour-pedia.org/api/getReviewsByPlaceId?placeId=83358,530,224,0,,,,4.0,1.0,3.0,5.0,5.0
290,33 Cour Saint-Emilion,attraction,83650,48.833142107784006,2.3865222930908,Paris,Chai 33,4adcda12f964a520563621e3,Bar,http://tour-pedia.org/api/getPlaceDetails?id=83650,http://tour-pedia.org/api/getReviewsByPlaceId?placeId=83650,1744,338,3,,,,4.0,1.0,3.0,5.0,5.0
291,11 Boulevard de Reuilly,attraction,83876,48.839141999999995,2.390645,Paris,Les Caves de Reuilly,4b0a8e3af964a520112523e3,Bar,http://tour-pedia.org/api/getPlaceDetails?id=83876,http://tour-pedia.org/api/getReviewsByPlaceId?placeId=83876,2412,1173,4,,,,4.0,1.0,3.0,5.0,5.0
292,48 rue Baron Le Roy,attraction,84250,48.833971457127,2.3888372236963,Paris,Ecole du vin,4b4e4116f964a52004e726e3,Bar,http://tour-pedia.org/api/getPlaceDetails?id=84250,http://tour-pedia.org/api/getReviewsByPlaceId?placeId=84250,1493,461,10,,,,4.0,1.0,3.0,5.0,5.0
293,134 Rue Marcadet,attraction,84580,48.891329887076,2.3393797874451,Paris,La Cave Café,4b6a052df964a5203bc22be3,Bar,http://tour-pedia.org/api/getPlaceDetails?id=84580,http://tour-pedia.org/api/getReviewsByPlaceId?placeId=84580,589,383,3,,,,4.0,1.0,3.0,5.0,5.0
294,22 rue des Dames,attraction,84814,48.884824,2.3246700000000002,Paris,Les Caves Populaires,4b7aec45f964a5204e462fe3,Bar,http://tour-pedia.org/api/getPlaceDetails?id=84814,http://tour-pedia.org/api/getReviewsByPlaceId?placeId=84814,676,331,3,,,,4.0,1.0,3.0,5.0,5.0
295,15-17 rue Joseph de Maistre,attraction,86969,48.886328000000006,2.333431,Paris,Le Vingt Heures Vin,4c7fe01fd34ca14325231480,Bar,http://tour-pedia.org/api/getPlaceDetails?id=86969,http://tour-pedia.org/api/getReviewsByPlaceId?placeId=86969,860,504,11,,,,4.0,1.0,3.0,5.0,5.0
296,34 rue de Cîteaux,attraction,87630,48.849752742549,2.3811770388022997,Paris,Le Siffleur de Ballons,4d3b3564fa736ea8a7da1d8a,Bar,http://tour-pedia.org/api/getPlaceDetails?id=87630,http://tour-pedia.org/api/getReviewsByPlaceId?placeId=87630,220,44,0,,,,4.0,1.0,3.0,5.0,5.0
297,2 place Léon Deubel,attraction,87966,48.837761332592,2.2594953024212003,Paris,Les Caves Angevines,4d9224669acaa1436240f8f0,Bar,http://tour-pedia.org/api/getPlaceDetails?id=87966,http://tour-pedia.org/api/getReviewsByPlaceId?placeId=87966,1218,283,6,,,,4.0,1.0,3.0,5.0,5.0
298,72 rue Boursault,attraction,89072,48.886108081987,2.3178766210655,Paris,L'Ébéniste du Vin,4ea428a1b6347b996880466f,Bar,http://tour-pedia.org/api/getPlaceDetails?id=89072,http://tour-pedia.org/api/getReviewsByPlaceId?placeId=89072,1537,1193,26,,,,4.0,1.0,3.0,5.0,5.0
299,15 Rue Du Champs De Mars,attraction,89891,48.856531013976,2.3055142758865,Paris,Bistrot Des Fistons,4fc7d935e4b088f388ece50b,Bar,http://tour-pedia.org/api/getPlaceDetails?id=89891,http://tour-pedia.org/api/getReviewsByPlaceId?placeId=89891,1631,372,5,,,,4.0,1.0,3.0,5.0,5.0
300,2 rue de l'olive,attraction,90551,48.891394685357,2.361802635695,Paris,En Vrac,50a541b2e4b08b4ad0f68420,Bar,http://tour-pedia.org/api/getPlaceDetails?id=90551,http://tour-pedia.org/api/getReviewsByPlaceId?placeId=90551,541,237,8,,,,4.0,1.0,3.0,5.0,5.0
301,39 avenue Mozart,attraction,90627,48.855488307838,2.2702172013457997,Paris,Nicolas,50c72b3ee4b014bd5d423767,Bar,http://tour-pedia.org/api/getPlaceDetails?id=90627,http://tour-pedia.org/api/getReviewsByPlaceId?placeId=90627,351,254,0,,,,4.0,1.0,3.0,5.0,5.0
302,62 Rue Orfila,attraction,91006,48.866951245136,2.3977192951057003,Paris,La Limite,515efdaa498e27bd73c3554a,Bar,http://tour-pedia.org/api/getPlaceDetails?id=91006,http://tour-pedia.org/api/getReviewsByPlaceId?placeId=91006,296,69,4,,,,4.0,1.0,3.0,5.0,5.0
303,"6, av de la Porte de la Chapelle",attraction,86470,48.899512399284,2.3590004047982003,Paris,Les Bowlings Sympas,4c1357e87f7f2d7f08eede68,Bowling,http://tour-pedia.org/api/getPlaceDetails?id=86470,http://tour-pedia.org/api/getReviewsByPlaceId?placeId=86470,537,200,1,,,,1.0,5.0,3.0,5.0,5.0
304,1 rue du Caporal Peugeot,attraction,88054,48.886719882574994,2.2900356616599,Paris,Bowling Champerret,4da60634cda1b0253fe95038,Bowling,http://tour-pedia.org/api/getPlaceDetails?id=88054,http://tour-pedia.org/api/getReviewsByPlaceId?placeId=88054,2830,795,5,,,,1.0,5.0,3.0,5.0,5.0
305,Rue Daguerre,attraction,84380,48.833801,2.3301939999999997,Paris,La Chope Daguerre,4b5a1001f964a520ddaa28e3,Brewery,http://tour-pedia.org/api/getPlaceDetails?id=84380,http://tour-pedia.org/api/getReviewsByPlaceId?placeId=84380,1303,604,7,,,,4.0,1.0,3.0,5.0,5.0
306,168 boulevard de Grenelle,attraction,85649,48.84769930477199,2.3011467712342,Paris,Le Royal Cambronne,4bc1a3b6b492d13ad951a660,Brewery,http://tour-pedia.org/api/getPlaceDetails?id=85649,http://tour-pedia.org/api/getReviewsByPlaceId?placeId=85649,1989,619,6,,,,4.0,1.0,3.0,5.0,5.0
307,254 rue de la Convention,attraction,86220,48.835313736370004,2.3027464417408,Paris,Tasco Café,4bf02402f831c92846a001f2,Brewery,http://tour-pedia.org/api/getPlaceDetails?id=86220,http://tour-pedia.org/api/getReviewsByPlaceId?placeId=86220,802,247,1,,,,4.0,1.0,3.0,5.0,5.0
308,1 Rue Xaintrailles,attraction,86425,48.829599405192006,2.3713012426219,Paris,Les Escapades,4c0ab1086071a593ca09e032,Brewery,http://tour-pedia.org/api/getPlaceDetails?id=86425,http://tour-pedia.org/api/getReviewsByPlaceId?placeId=86425,162,82,1,,,,4.0,1.0,3.0,5.0,5.0
309,38 rue des Entrepreneurs,attraction,87063,48.846596999999996,2.286165,Paris,Le Relais Charbon,4c927d8c1221b1f7440512e2,Brewery,http://tour-pedia.org/api/getPlaceDetails?id=87063,http://tour-pedia.org/api/getReviewsByPlaceId?placeId=87063,38,16,0,,,,4.0,1.0,3.0,5.0,5.0
310,197 avenue daumesnil,attraction,87490,48.839839581987,2.3941555808188997,Paris,les enfants terribles,4d066eb792288eec48ed9ce0,Brewery,http://tour-pedia.org/api/getPlaceDetails?id=87490,http://tour-pedia.org/api/getReviewsByPlaceId?placeId=87490,510,390,1,,,,4.0,1.0,3.0,5.0,5.0
311,110-114 rue de Bercy,attraction,87499,48.839397039512995,2.3802241524639,Paris,Brasserie Les Spectacles,4d09844733d6b60c51db9585,Brewery,http://tour-pedia.org/api/getPlaceDetails?id=87499,http://tour-pedia.org/api/getReviewsByPlaceId?placeId=87499,562,305,3,,,,4.0,1.0,3.0,5.0,5.0
312,1 rue Jouffroy D' Abbans,attraction,87768,48.887211950855,2.3138408800457,Paris,Café de la Gare,4d6b8f5f2bf05481d0a4d0ed,Brewery,http://tour-pedia.org/api/getPlaceDetails?id=87768,http://tour-pedia.org/api/getReviewsByPlaceId?placeId=87768,1056,580,12,,,,4.0,1.0,3.0,5.0,5.0
313,9 avenue jean jaures,attraction,88525,48.823889,2.42285,Paris,L Ardennais,4e205f717d8b71715b9f826a,Brewery,http://tour-pedia.org/api/getPlaceDetails?id=88525,http://tour-pedia.org/api/getReviewsByPlaceId?placeId=88525,3879,2281,36,,,,4.0,1.0,3.0,5.0,5.0
314,18 rue de Moscou,attraction,88983,48.880580565551995,2.3253984223661,Paris,Au Petit Zinc,4e899aaa6c25bf8636489fd6,Brewery,http://tour-pedia.org/api/getPlaceDetails?id=88983,http://tour-pedia.org/api/getReviewsByPlaceId?placeId=88983,1117,809,9,,,,4.0,1.0,3.0,5.0,5.0
315,320 rue des Pyrénées,attraction,89057,48.87271912434301,2.3907610308494,Paris,Les Petits Campagnards,4e9c39778b81c0254f081cb0,Brewery,http://tour-pedia.org/api/getPlaceDetails?id=89057,http://tour-pedia.org/api/getReviewsByPlaceId?placeId=89057,207,73,2,,,,4.0,1.0,3.0,5.0,5.0
316,8 rue de l'Olive,attraction,90015,48.890665809685004,2.3613460628416,Paris,Brasserie de l'Olive,4feecd94e4b00a5fd41a2044,Brewery,http://tour-pedia.org/api/getPlaceDetails?id=90015,http://tour-pedia.org/api/getReviewsByPlaceId?placeId=90015,816,467,6,,,,4.0,1.0,3.0,5.0,5.0
317,26 rue de la Croix Nivert,attraction,90423,48.846629514490004,2.2995097131217004,Paris,Le Comptoir Moderne,50704879e4b07f6e2d2a05c8,Brewery,http://tour-pedia.org/api/getPlaceDetails?id=90423,http://tour-pedia.org/api/getReviewsByPlaceId?placeId=90423,535,289,5,,,,4.0,1.0,3.0,5.0,5.0
318,96 rue du Commerce,attraction,90962,48.843720317089,2.293074131012,Paris,à€ la Tour Eiffel,5150cc36e4b092b79c1b5ac9,Brewery,http://tour-pedia.org/api/getPlaceDetails?id=90962,http://tour-pedia.org/api/getReviewsByPlaceId?placeId=90962,278,197,3,,,,4.0,1.0,3.0,5.0,5.0
319,Bois De Boulogne,attraction,90989,48.851261,2.2385099999999998,Paris,Châlet Les Bosquettes,51598781e4b09bde58ff2201,Brewery,http://tour-pedia.org/api/getPlaceDetails?id=90989,http://tour-pedia.org/api/getReviewsByPlaceId?placeId=90989,991,400,3,,,,4.0,1.0,3.0,5.0,5.0
320,Pont des Arts,attraction,83499,48.858461116978,2.337561249733,Paris,Pont des Arts,4adcda09f964a520ff3321e3,Bridge,http://tour-pedia.org/api/getPlaceDetails?id=83499,http://tour-pedia.org/api/getReviewsByPlaceId?placeId=83499,3179,1307,47,,,,5.0,5.0,5.0,5.0,5.0
321,Passerelle Simone de Beauvoir,attraction,83521,48.83526428416099,2.3780786991119,Paris,Passerelle Simone de Beauvoir,4adcda0af964a5205e3421e3,Bridge,http://tour-pedia.org/api/getPlaceDetails?id=83521,http://tour-pedia.org/api/getReviewsByPlaceId?placeId=83521,102,49,3,,,,5.0,5.0,5.0,5.0,5.0
322,119 Avenue Daumesnil,attraction,83756,48.844592092498,2.3827806144119,Paris,Viaduc des Arts,4adcda21f964a520fe3921e3,Bridge,http://tour-pedia.org/api/getPlaceDetails?id=83756,http://tour-pedia.org/api/getReviewsByPlaceId?placeId=83756,1188,874,4,,,,5.0,5.0,5.0,5.0,5.0
323,Pont de l'Alma,attraction,84857,48.863472564978,2.301721572876,Paris,Pont de l'Alma,4b7e3eb1f964a5201ae72fe3,Bridge,http://tour-pedia.org/api/getPlaceDetails?id=84857,http://tour-pedia.org/api/getReviewsByPlaceId?placeId=84857,159,34,0,,,,5.0,5.0,5.0,5.0,5.0
324,Passerelle Solferino,attraction,85273,48.861880955235996,2.3247241973877,Paris,Passerelle Léopold-Sédar-Senghor,4ba29193f964a5201e0538e3,Bridge,http://tour-pedia.org/api/getPlaceDetails?id=85273,http://tour-pedia.org/api/getReviewsByPlaceId?placeId=85273,207,73,1,,,,5.0,5.0,5.0,5.0,5.0
325,Pont de Bir-Hakeim,attraction,85797,48.855750490949,2.287495136261,Paris,Pont de Bir-Hakeim,4bcae3ec937ca593289aa892,Bridge,http://tour-pedia.org/api/getPlaceDetails?id=85797,http://tour-pedia.org/api/getReviewsByPlaceId?placeId=85797,670,453,7,,,,5.0,5.0,5.0,5.0,5.0
326,Pont de la Tournelle,attraction,85905,48.850664141608,2.3554676771164,Paris,Pont de la Tournelle,4bd1d03d462cb71366e8da07,Bridge,http://tour-pedia.org/api/getPlaceDetails?id=85905,http://tour-pedia.org/api/getReviewsByPlaceId?placeId=85905,273,100,2,,,,5.0,5.0,5.0,5.0,5.0
327,Pont Saint-Louis,attraction,85935,48.852753807763,2.3527318239212005,Paris,Pont Saint-Louis,4bd43d5577b29c7402469282,Bridge,http://tour-pedia.org/api/getPlaceDetails?id=85935,http://tour-pedia.org/api/getReviewsByPlaceId?placeId=85935,584,169,2,,,,5.0,5.0,5.0,5.0,5.0
328,Pont de Sully,attraction,86245,48.850117001772006,2.3590672016144,Paris,Pont de Sully,4bf3cf4f6a31d13a77f9942e,Bridge,http://tour-pedia.org/api/getPlaceDetails?id=86245,http://tour-pedia.org/api/getReviewsByPlaceId?placeId=86245,443,190,2,,,,5.0,5.0,5.0,5.0,5.0
329,Pont Charles de Gaulle,attraction,86304,48.842591,2.3690990000000003,Paris,Pont Charles de Gaulle,4bf92c75508c0f472f143f31,Bridge,http://tour-pedia.org/api/getPlaceDetails?id=86304,http://tour-pedia.org/api/getReviewsByPlaceId?placeId=86304,5306,2686,62,,,,5.0,5.0,5.0,5.0,5.0
330,Pont de la Concorde,attraction,86317,48.86338,2.31957,Paris,Pont de la Concorde,4bfa8529b182c9b680677a5a,Bridge,http://tour-pedia.org/api/getPlaceDetails?id=86317,http://tour-pedia.org/api/getReviewsByPlaceId?placeId=86317,1339,957,23,,,,5.0,5.0,5.0,5.0,5.0
331,Pont d'Iéna,attraction,86691,48.859745789504004,2.2921085357666002,Paris,Pont d'Iéna,4c3f6eeece54e21eb60b081a,Bridge,http://tour-pedia.org/api/getPlaceDetails?id=86691,http://tour-pedia.org/api/getReviewsByPlaceId?placeId=86691,631,217,3,,,,5.0,5.0,5.0,5.0,5.0
332,31 Quai de la Loire,attraction,86724,48.887193303682004,2.3775007111179,Paris,Pont Qui Bouge,4c45e3e1f1b5c9b639e777ef,Bridge,http://tour-pedia.org/api/getPlaceDetails?id=86724,http://tour-pedia.org/api/getReviewsByPlaceId?placeId=86724,552,477,2,,,,5.0,5.0,5.0,5.0,5.0
333,Pont de Grenelle,attraction,87141,48.850244079944,2.2800493240356,Paris,Pont de Grenelle,4c9e1dcd542b224b2a95f09f,Bridge,http://tour-pedia.org/api/getPlaceDetails?id=87141,http://tour-pedia.org/api/getReviewsByPlaceId?placeId=87141,779,287,9,,,,5.0,5.0,5.0,5.0,5.0
334,Quai de Jemmapes,attraction,87328,48.873021160517,2.3639273643494,Paris,Pont Tournant de la Grange aux Belles,4ccd8494ba0a5481fbc14359,Bridge,http://tour-pedia.org/api/getPlaceDetails?id=87328,http://tour-pedia.org/api/getReviewsByPlaceId?placeId=87328,3993,2721,62,,,,5.0,5.0,5.0,5.0,5.0
335,Pont d'Austerlitz,attraction,87708,48.844973595061,2.3660945892333998,Paris,Pont d'Austerlitz,4d54348ef5daa0938b286f74,Bridge,http://tour-pedia.org/api/getPlaceDetails?id=87708,http://tour-pedia.org/api/getReviewsByPlaceId?placeId=87708,347,77,0,,,,5.0,5.0,5.0,5.0,5.0
336,Pont de l'Archevêché,attraction,87716,48.851621,2.351595,Paris,Pont de l'Archevêché,4d57f5a9afe4b60c04dd4a61,Bridge,http://tour-pedia.org/api/getPlaceDetails?id=87716,http://tour-pedia.org/api/getReviewsByPlaceId?placeId=87716,702,356,8,,,,5.0,5.0,5.0,5.0,5.0
337,Place de l'Europe,attraction,87798,48.878835803234,2.3236355144946,Paris,Place de l'Europe,4d72013a8e12b1f714a63405,Bridge,http://tour-pedia.org/api/getPlaceDetails?id=87798,http://tour-pedia.org/api/getReviewsByPlaceId?placeId=87798,250,104,1,,,,5.0,5.0,5.0,5.0,5.0
338,Pont National,attraction,87822,48.828000489152004,2.3869514465332,Paris,Pont National,4d79d254c307a35d46fc4a31,Bridge,http://tour-pedia.org/api/getPlaceDetails?id=87822,http://tour-pedia.org/api/getReviewsByPlaceId?placeId=87822,5626,1523,12,,,,5.0,5.0,5.0,5.0,5.0
339,Bassin de la Villette,attraction,87890,48.888395297613,2.3793983459473,Paris,Pont Levant,4d8624d27e8ef04dac972ebe,Bridge,http://tour-pedia.org/api/getPlaceDetails?id=87890,http://tour-pedia.org/api/getReviewsByPlaceId?placeId=87890,1545,1033,28,,,,5.0,5.0,5.0,5.0,5.0
340,Pont de Tolbiac,attraction,87959,48.83293730064901,2.3810505867004,Paris,Pont de Tolbiac,4d90fb9cca75b60ca2bf33a9,Bridge,http://tour-pedia.org/api/getPlaceDetails?id=87959,http://tour-pedia.org/api/getReviewsByPlaceId?placeId=87959,58,24,0,,,,5.0,5.0,5.0,5.0,5.0
341,Pont de Bercy,attraction,87960,48.838149028681,2.3749887943268,Paris,Pont de Bercy,4d910438cb9b224bf0c1bc41,Bridge,http://tour-pedia.org/api/getPlaceDetails?id=87960,http://tour-pedia.org/api/getReviewsByPlaceId?placeId=87960,1783,1129,14,,,,5.0,5.0,5.0,5.0,5.0
342,Rue Dieu,attraction,88080,48.870882941582,2.3656439781188996,Paris,Pont Tournant de la Rue Dieu,4dadca948154b108fec675f2,Bridge,http://tour-pedia.org/api/getPlaceDetails?id=88080,http://tour-pedia.org/api/getReviewsByPlaceId?placeId=88080,441,51,1,,,,5.0,5.0,5.0,5.0,5.0
343,2 rue des Meuniers,attraction,88354,48.833274973144995,2.3989873492143996,Paris,Passerelle Des Meuniers,4defe6b81f6ea135c6586a80,Bridge,http://tour-pedia.org/api/getPlaceDetails?id=88354,http://tour-pedia.org/api/getReviewsByPlaceId?placeId=88354,346,177,2,,,,5.0,5.0,5.0,5.0,5.0
344,Pont des Invalides,attraction,88795,48.863592551244004,2.31036901474,Paris,Pont des Invalides,4e6463231520355eb6ed8027,Bridge,http://tour-pedia.org/api/getPlaceDetails?id=88795,http://tour-pedia.org/api/getReviewsByPlaceId?placeId=88795,74,59,2,,,,5.0,5.0,5.0,5.0,5.0
345,Jardin de Reuilly,attraction,90768,48.844106019861,2.3943338402561,Paris,Passerelle BZ/12,510967fee4b0b8521f96234d,Bridge,http://tour-pedia.org/api/getPlaceDetails?id=90768,http://tour-pedia.org/api/getReviewsByPlaceId?placeId=90768,2504,952,4,,,,5.0,5.0,5.0,5.0,5.0
346,Rue Guersant,attraction,86857,48.881931047049,2.2894097375759,Paris,Rue Guersant,4c69d84ac946e21e1959eb8e,Building,http://tour-pedia.org/api/getPlaceDetails?id=86857,http://tour-pedia.org/api/getReviewsByPlaceId?placeId=86857,364,177,4,,,,5.0,5.0,5.0,5.0,5.0
347,16-18 rue du Quatre Septembre,attraction,87021,48.870213748971004,2.3360498294965,Paris,Le Centorial,4c89151ded0aa14358b1aef3,Building,http://tour-pedia.org/api/getPlaceDetails?id=87021,http://tour-pedia.org/api/getReviewsByPlaceId?placeId=87021,2794,969,25,,,,5.0,5.0,5.0,5.0,5.0
348,142 Boulevard de l'Hôpital,attraction,84981,48.833309155944,2.3569959095839,Paris,Arts Café,4b8942fdf964a520c32632e3,Cafe,http://tour-pedia.org/api/getPlaceDetails?id=84981,http://tour-pedia.org/api/getReviewsByPlaceId?placeId=84981,608,458,3,,,,3.0,4.0,4.0,4.0,4.0
349,"135, boulevard Brune",attraction,85314,48.824628105449,2.3145299301141,Paris,Paris Brune,4ba5fb7df964a520932c39e3,Cafe,http://tour-pedia.org/api/getPlaceDetails?id=85314,http://tour-pedia.org/api/getReviewsByPlaceId?placeId=85314,243,160,2,,,,3.0,4.0,4.0,4.0,4.0
350,Boulevard de Vaugirard,attraction,85385,48.84088661368,2.3159829545746002,Paris,Blue Buoy,4bac70c4f964a52036f53ae3,Cafe,http://tour-pedia.org/api/getPlaceDetails?id=85385,http://tour-pedia.org/api/getReviewsByPlaceId?placeId=85385,1378,465,4,,,,3.0,4.0,4.0,4.0,4.0
351,20 Avenue Rachel,attraction,83461,48.887548749415,2.3304319381714,Paris,Cimetière de Montmartre,4adcda09f964a5200a3421e3,Cemetery,http://tour-pedia.org/api/getPlaceDetails?id=83461,http://tour-pedia.org/api/getReviewsByPlaceId?placeId=83461,255,145,3,,,,1.0,1.0,1.0,1.0,1.0
352,16 Rue du Repos,attraction,83486,48.861326879657,2.3942041397095,Paris,Cimetière du Père Lachaise,4adcda09f964a520e73321e3,Cemetery,http://tour-pedia.org/api/getPlaceDetails?id=83486,http://tour-pedia.org/api/getReviewsByPlaceId?placeId=83486,382,304,8,,,,1.0,1.0,1.0,1.0,1.0
353,Hôtel des Invalides,attraction,83511,48.855623426753,2.3125791549683,Paris,Tombeau de Napoléon,4adcda0af964a520323421e3,Cemetery,http://tour-pedia.org/api/getPlaceDetails?id=83511,http://tour-pedia.org/api/getReviewsByPlaceId?placeId=83511,294,257,3,,,,1.0,1.0,1.0,1.0,1.0
354,Cimetière du Père Lachaise,attraction,85417,48.859323236668,2.3937162379049997,Paris,Tombe de Jim Morrison,4bae2c6df964a5209d8d3be3,Cemetery,http://tour-pedia.org/api/getPlaceDetails?id=85417,http://tour-pedia.org/api/getReviewsByPlaceId?placeId=85417,1165,320,7,,,,1.0,1.0,1.0,1.0,1.0
355,Cimetière du Père Lachaise,attraction,85536,48.859604618311,2.3987531661987003,Paris,Tombe d'Edith Piaf,4bb9d0021261d13a40dbe998,Cemetery,http://tour-pedia.org/api/getPlaceDetails?id=85536,http://tour-pedia.org/api/getReviewsByPlaceId?placeId=85536,53,51,1,,,,1.0,1.0,1.0,1.0,1.0
356,Cimetière du Père Lachaise,attraction,85537,48.861788,2.397981,Paris,Tombe d'Oscar Wilde,4bb9d6d9b35776b0c82fca01,Cemetery,http://tour-pedia.org/api/getPlaceDetails?id=85537,http://tour-pedia.org/api/getReviewsByPlaceId?placeId=85537,788,346,0,,,,1.0,1.0,1.0,1.0,1.0
357,2 Rue du Commandant Schloesing,attraction,87052,48.862413850165005,2.2850918769836,Paris,Cimetière de Passy,4c90cc877f3b8cfa800b971e,Cemetery,http://tour-pedia.org/api/getPlaceDetails?id=87052,http://tour-pedia.org/api/getReviewsByPlaceId?placeId=87052,307,30,0,,,,1.0,1.0,1.0,1.0,1.0
358,Place de la Madeleine,attraction,83456,48.869753812208,2.3242735862732,Paris,Église de la Madeleine,4adcda09f964a520013421e3,Church,http://tour-pedia.org/api/getPlaceDetails?id=83456,http://tour-pedia.org/api/getReviewsByPlaceId?placeId=83456,408,312,2,,,,4.0,4.0,3.0,3.0,2.0
359,2 Place du Louvre,attraction,83473,48.859519915404995,2.3413056135178,Paris,Église Saint-Germain l'Auxerrois,4adcda09f964a520173421e3,Church,http://tour-pedia.org/api/getPlaceDetails?id=83473,http://tour-pedia.org/api/getReviewsByPlaceId?placeId=83473,275,125,0,,,,4.0,4.0,3.0,3.0,2.0
360,1 Place Alphonse Laveran,attraction,83475,48.840575,2.3419060000000003,Paris,Église du Val-de-Grâce,4adcda09f964a5201c3421e3,Church,http://tour-pedia.org/api/getPlaceDetails?id=83475,http://tour-pedia.org/api/getReviewsByPlaceId?placeId=83475,597,186,3,,,,4.0,4.0,3.0,3.0,2.0
361,284 rue Saint-Honoré,attraction,83492,48.865181,2.332546,Paris,Église Saint-Roch,4adcda09f964a520ee3321e3,Church,http://tour-pedia.org/api/getPlaceDetails?id=83492,http://tour-pedia.org/api/getReviewsByPlaceId?placeId=83492,808,477,3,,,,4.0,4.0,3.0,3.0,2.0
362,Place Saint-Sulpice,attraction,83495,48.850879465969,2.3342514038086,Paris,Église Saint-Sulpice,4adcda09f964a520fa3321e3,Church,http://tour-pedia.org/api/getPlaceDetails?id=83495,http://tour-pedia.org/api/getReviewsByPlaceId?placeId=83495,554,211,8,,,,4.0,4.0,3.0,3.0,2.0
363,88 Rue de l'Assomption,attraction,83526,48.855703186683996,2.2667876578862,Paris,Notre-Dame de l'Assomption,4adcda0af964a5206d3421e3,Church,http://tour-pedia.org/api/getPlaceDetails?id=83526,http://tour-pedia.org/api/getReviewsByPlaceId?placeId=83526,3658,1629,30,,,,4.0,4.0,3.0,3.0,2.0
364,188 rue de Tolbiac,attraction,83527,48.826182,2.350125,Paris,Église Sainte-Anne de la Butte-aux-Cailles,4adcda0bf964a520823421e3,Church,http://tour-pedia.org/api/getPlaceDetails?id=83527,http://tour-pedia.org/api/getReviewsByPlaceId?placeId=83527,1006,566,9,,,,4.0,4.0,3.0,3.0,2.0
365,4 rue Saint Christophe,attraction,83528,48.844636,2.2793639999999997,Paris,Église Saint-Christophe de Javel,4adcda0bf964a520853421e3,Church,http://tour-pedia.org/api/getPlaceDetails?id=83528,http://tour-pedia.org/api/getReviewsByPlaceId?placeId=83528,159,57,1,,,,4.0,4.0,3.0,3.0,2.0
366,Place du Cardinal Amette,attraction,83529,48.850994,2.296472,Paris,Église Saint-Léon,4adcda0bf964a520883421e3,Church,http://tour-pedia.org/api/getPlaceDetails?id=83529,http://tour-pedia.org/api/getReviewsByPlaceId?placeId=83529,5,5,0,,,,4.0,4.0,3.0,3.0,2.0
367,122 rue de la Glaciere,attraction,83531,48.829248348936005,2.3432422563486,Paris,Église Albert le Grand,4adcda0bf964a520973421e3,Church,http://tour-pedia.org/api/getPlaceDetails?id=83531,http://tour-pedia.org/api/getReviewsByPlaceId?placeId=83531,579,383,4,,,,4.0,4.0,3.0,3.0,2.0
368,Rue Ampère,attraction,83532,48.88478,2.3049939999999998,Paris,Église Saint-François-de-Sales,4adcda0bf964a520983421e3,Church,http://tour-pedia.org/api/getPlaceDetails?id=83532,http://tour-pedia.org/api/getReviewsByPlaceId?placeId=83532,1650,642,8,,,,4.0,4.0,3.0,3.0,2.0
